"month","town","address","block","street_name","flat_type","storey_range","storey_range_lower","storey_range_upper","floor_area_sqm","flat_model","lease_commence_date","remaining_lease","remaining_lease_year","resale_price","LATITUDE","LONGITUDE","PROX_CBD"
"2019-06","SENGKANG","320D ANCHORVALE DR","320D","ANCHORVALE DR","4 ROOM","01 TO 03","01","03",90,"Model A",2002,"82 years 03 months",82,415000,1.3909522124166,103.891815990371,18.026
"2019-06","SENGKANG","226A COMPASSVALE WALK","226A","COMPASSVALE WALK","4 ROOM","13 TO 15","13","15",102,"Model A",1999,"79 years 07 months",79,415000,1.38741262572687,103.899719706863,16.144
"2019-06","SENGKANG","451B SENGKANG WEST WAY","451B","SENGKANG WEST WAY","4 ROOM","10 TO 12","10","12",92,"Model A",2015,"94 years 11 months",94,415000,1.39429892681927,103.87454741629,16.995
"2019-06","SENGKANG","435B FERNVALE RD","435B","FERNVALE RD","4 ROOM","10 TO 12","10","12",94,"Premium Apartment",2013,"93 years 01 month",93,418000,1.39339364366596,103.876644854346,17.214
"2019-06","SENGKANG","451B SENGKANG WEST WAY","451B","SENGKANG WEST WAY","4 ROOM","07 TO 09","07","09",92,"Model A",2015,"95 years 01 month",95,420000,1.39429892681927,103.87454741629,16.995
"2019-06","SENGKANG","327C ANCHORVALE RD","327C","ANCHORVALE RD","4 ROOM","04 TO 06","04","06",92,"Premium Apartment",2015,"94 years 11 months",94,425000,1.39609319862488,103.888720918656,18.668
"2019-06","SENGKANG","438B SENGKANG WEST AVE","438B","SENGKANG WEST AVE","4 ROOM","19 TO 21","19","21",94,"Model A",2011,"90 years 08 months",90,439000,1.39274518333866,103.877720031685,17.548
"2019-06","SENGKANG","326A ANCHORVALE RD","326A","ANCHORVALE RD","4 ROOM","04 TO 06","04","06",92,"Premium Apartment",2015,"94 years 10 months",94,440000,1.39491417297588,103.88800013779,18.653
"2019-06","SENGKANG","453B FERNVALE RD","453B","FERNVALE RD","4 ROOM","22 TO 24","22","24",92,"Model A",2015,"95 years 02 months",95,440000,1.3942988861693,103.875110781799,17.014
"2019-06","SENGKANG","326A ANCHORVALE RD","326A","ANCHORVALE RD","4 ROOM","04 TO 06","04","06",92,"Premium Apartment",2015,"94 years 10 months",94,447000,1.39491417297588,103.88800013779,18.653
"2019-06","SENGKANG","410B FERNVALE RD","410B","FERNVALE RD","4 ROOM","25 TO 27","25","27",96,"Premium Apartment",2012,"92 years 06 months",92,448000,1.38978938889476,103.876096713603,17.018
"2019-06","SENGKANG","433B SENGKANG WEST WAY","433B","SENGKANG WEST WAY","4 ROOM","16 TO 18","16","18",93,"Model A",2014,"94 years 04 months",94,448888,1.39388894272879,103.877494624525,17.373
"2019-06","SENGKANG","326D ANCHORVALE RD","326D","ANCHORVALE RD","4 ROOM","07 TO 09","07","09",92,"Premium Apartment",2015,"94 years 10 months",94,450000,1.39613052938418,103.888097116033,18.613
"2019-06","SENGKANG","441D FERNVALE RD","441D","FERNVALE RD","4 ROOM","22 TO 24","22","24",94,"Model A",2012,"91 years 08 months",91,450000,1.39209223539633,103.875248015845,17.538
"2019-06","SENGKANG","332B ANCHORVALE LINK","332B","ANCHORVALE LINK","4 ROOM","13 TO 15","13","15",92,"Model A",2015,"95 years 10 months",95,460000,1.39510794817993,103.891456224107,18.951
"2019-06","SENGKANG","326D ANCHORVALE RD","326D","ANCHORVALE RD","4 ROOM","04 TO 06","04","06",92,"Premium Apartment",2015,"94 years 10 months",94,462000,1.39613052938418,103.888097116033,18.613
"2019-06","SENGKANG","332B ANCHORVALE LINK","332B","ANCHORVALE LINK","4 ROOM","07 TO 09","07","09",92,"Model A",2015,"95 years 02 months",95,470000,1.39510794817993,103.891456224107,18.951
"2019-06","SENGKANG","271A SENGKANG CTRL","271A","SENGKANG CTRL","4 ROOM","16 TO 18","16","18",93,"Premium Apartment",2010,"89 years 11 months",89,495000,1.38595588536248,103.894654799481,17.517
"2019-06","SENGKANG","272A SENGKANG CTRL","272A","SENGKANG CTRL","4 ROOM","07 TO 09","07","09",90,"Premium Apartment",2009,"89 years 07 months",89,505000,1.38526180662915,103.893959317126,17.371
"2019-06","SENGKANG","265E COMPASSVALE BOW","265E","COMPASSVALE BOW","4 ROOM","13 TO 15","13","15",92,"Premium Apartment",2007,"87 years 02 months",87,515000,1.381909151675,103.896656322872,17.184
"2019-06","SENGKANG","271B SENGKANG CTRL","271B","SENGKANG CTRL","4 ROOM","10 TO 12","10","12",93,"Premium Apartment",2010,"89 years 11 months",89,530000,1.38545544642334,103.894490395737,17.596
"2019-06","SENGKANG","273D COMPASSVALE LINK","273D","COMPASSVALE LINK","4 ROOM","16 TO 18","16","18",90,"Premium Apartment",2009,"89 years 02 months",89,550000,1.38414098951186,103.894443272414,17.649
"2019-06","SENGKANG","272C SENGKANG CTRL","272C","SENGKANG CTRL","4 ROOM","10 TO 12","10","12",90,"Premium Apartment",2009,"89 years 06 months",89,550000,1.38427332655847,103.893821005371,17.483
"2019-06","SENGKANG","273A COMPASSVALE LINK","273A","COMPASSVALE LINK","4 ROOM","10 TO 12","10","12",90,"Premium Apartment",2009,"89 years 02 months",89,560000,1.38407485646696,103.894939721785,17.645
"2019-06","SERANGOON","146 SERANGOON NTH AVE 1","146","SERANGOON NTH AVE 1","4 ROOM","04 TO 06","04","06",83,"Simplified",1987,"67 years 02 months",67,350000,1.36816861691966,103.87293845884,13.822
"2019-06","SERANGOON","219 SERANGOON AVE 4","219","SERANGOON AVE 4","4 ROOM","01 TO 03","01","03",96,"New Generation",1984,"64 years 06 months",64,4e+05,1.35835882532411,103.872182035504,12.545
"2019-06","TAMPINES","488B TAMPINES ST 45","488B","TAMPINES ST 45","4 ROOM","04 TO 06","04","06",103,"Model A",1989,"69 years 04 months",69,372000,1.36050029022569,103.957151008983,22.624
"2019-06","TAMPINES","275 TAMPINES ST 22","275","TAMPINES ST 22","4 ROOM","01 TO 03","01","03",105,"Model A",1985,"64 years 07 months",64,380000,1.34781303677538,103.950409276356,19.245
"2019-06","TAMPINES","837 TAMPINES ST 83","837","TAMPINES ST 83","4 ROOM","01 TO 03","01","03",105,"Model A",1985,"64 years 09 months",64,396000,1.35088781368026,103.934458619058,14.569
"2019-06","TAMPINES","437 TAMPINES ST 43","437","TAMPINES ST 43","4 ROOM","10 TO 12","10","12",105,"Model A",1986,"66 years 02 months",66,410000,1.35996624539325,103.951587758584,21.588
"2019-06","TAMPINES","916 TAMPINES ST 91","916","TAMPINES ST 91","4 ROOM","13 TO 15","13","15",103,"Model A",1984,"64 years 03 months",64,416000,1.34863107372522,103.940290409375,18.014
"2019-06","TAMPINES","158 SIMEI RD","158","SIMEI RD","4 ROOM","01 TO 03","01","03",108,"Model A",1989,"68 years 09 months",68,425000,1.34425348635592,103.959602823483,19.911
"2019-06","TAMPINES","709 TAMPINES ST 71","709","TAMPINES ST 71","4 ROOM","07 TO 09","07","09",99,"Model A",1997,"77 years 01 month",77,430000,1.35798965118265,103.937435186474,15.179
"2019-06","TAMPINES","933 TAMPINES ST 91","933","TAMPINES ST 91","4 ROOM","04 TO 06","04","06",104,"Model A",1985,"65 years 01 month",65,435000,1.34524172287507,103.939098694607,17.973
"2019-06","TAMPINES","725 TAMPINES ST 71","725","TAMPINES ST 71","4 ROOM","10 TO 12","10","12",103,"Model A",1997,"77 years 03 months",77,435000,1.35698450686671,103.935334502197,15.228
"2019-06","TAMPINES","273 TAMPINES ST 22","273","TAMPINES ST 22","4 ROOM","07 TO 09","07","09",105,"Model A",1984,"64 years 01 month",64,438000,1.3486918230885,103.95042750892,19.098
"2019-06","TAMPINES","116 SIMEI ST 1","116","SIMEI ST 1","4 ROOM","04 TO 06","04","06",104,"Model A",1988,"68 years 05 months",68,450000,1.34358452919709,103.951127773868,18.855
"2019-06","TAMPINES","714 TAMPINES ST 71","714","TAMPINES ST 71","4 ROOM","04 TO 06","04","06",100,"Model A",1997,"76 years 09 months",76,450000,1.36005190110954,103.937142900774,15.348
"2019-06","TAMPINES","107 SIMEI ST 1","107","SIMEI ST 1","4 ROOM","04 TO 06","04","06",104,"Model A",1988,"68 years 05 months",68,455000,1.3421611396727,103.950489942022,18.874
"2019-06","TAMPINES","251 TAMPINES ST 21","251","TAMPINES ST 21","4 ROOM","10 TO 12","10","12",102,"Model A",1985,"64 years 07 months",64,460000,1.35275541922653,103.948119177521,19.86
"2019-06","TAMPINES","108 SIMEI ST 1","108","SIMEI ST 1","4 ROOM","04 TO 06","04","06",104,"Model A",1988,"68 years 02 months",68,462000,1.34301954085884,103.951007442775,18.921
"2019-06","TAMPINES","869A TAMPINES AVE 8","869A","TAMPINES AVE 8","4 ROOM","04 TO 06","04","06",92,"Model A",2015,"95 years 01 month",95,5e+05,1.35501799093941,103.93231742743,14.452
"2019-06","TAMPINES","503 TAMPINES CTRL 1","503","TAMPINES CTRL 1","4 ROOM","07 TO 09","07","09",113,"Model A",1990,"69 years 08 months",69,538000,1.35580573472225,103.945108935184,19.229
"2019-06","TAMPINES","168C SIMEI LANE","168C","SIMEI LANE","4 ROOM","04 TO 06","04","06",94,"DBSS",2011,"90 years 09 months",90,628000,1.34247709890668,103.958539053563,20.305
"2019-06","TOA PAYOH","249 KIM KEAT LINK","249","KIM KEAT LINK","4 ROOM","04 TO 06","04","06",104,"Model A",1988,"68 years 06 months",68,485000,1.33131573283592,103.85665702204,10.184
"2019-06","TOA PAYOH","79A TOA PAYOH CTRL","79A","TOA PAYOH CTRL","4 ROOM","13 TO 15","13","15",76,"Model A",2009,"88 years 10 months",88,630000,1.33453129537675,103.847565695822,8.375
"2019-06","TOA PAYOH","86 LOR 2 TOA PAYOH","86","LOR 2 TOA PAYOH","4 ROOM","07 TO 09","07","09",106,"Model A",1997,"76 years 11 months",76,660000,1.33549135587104,103.847691358826,8.65
"2019-06","TOA PAYOH","79B TOA PAYOH CTRL","79B","TOA PAYOH CTRL","4 ROOM","10 TO 12","10","12",91,"Model A",2009,"88 years 10 months",88,740000,1.33464078301907,103.847990266882,8.378
"2019-06","WOODLANDS","33 MARSILING DR","33","MARSILING DR","4 ROOM","07 TO 09","07","09",98,"New Generation",1978,"57 years 07 months",57,248000,1.44355825410306,103.772015392214,24.7
"2019-06","WOODLANDS","429 WOODLANDS ST 41","429","WOODLANDS ST 41","4 ROOM","04 TO 06","04","06",84,"Simplified",1996,"76 years 02 months",76,290000,1.42661684900233,103.772948569562,23.554
"2019-06","WOODLANDS","742 WOODLANDS CIRCLE","742","WOODLANDS CIRCLE","4 ROOM","01 TO 03","01","03",102,"Model A",1997,"77 years 02 months",77,294000,1.44392097347428,103.796032969959,27.431
"2019-06","WOODLANDS","177 WOODLANDS ST 13","177","WOODLANDS ST 13","4 ROOM","07 TO 09","07","09",91,"New Generation",1986,"65 years 08 months",65,297000,1.43435791362603,103.778088434368,24.032
"2019-06","WOODLANDS","524 WOODLANDS DR 14","524","WOODLANDS DR 14","4 ROOM","01 TO 03","01","03",103,"Premium Apartment",2000,"79 years 10 months",79,3e+05,1.43264768513006,103.79367954254,26.153
"2019-06","WOODLANDS","773 WOODLANDS DR 60","773","WOODLANDS DR 60","4 ROOM","04 TO 06","04","06",91,"Model A2",1997,"77 years 05 months",77,3e+05,1.44747282541986,103.797716111303,27.476
"2019-06","WOODLANDS","202 MARSILING DR","202","MARSILING DR","4 ROOM","13 TO 15","13","15",93,"New Generation",1981,"61 years 03 months",61,305000,1.44315121142693,103.775164777049,24.474
"2019-06","WOODLANDS","553 WOODLANDS DR 44","553","WOODLANDS DR 44","4 ROOM","04 TO 06","04","06",102,"Model A",2000,"79 years 11 months",79,310000,1.43161421964632,103.795071966682,25.598
"2019-06","WOODLANDS","575 WOODLANDS DR 16","575","WOODLANDS DR 16","4 ROOM","10 TO 12","10","12",86,"Model A2",2000,"80 years 06 months",80,312000,1.43118720442285,103.797237729001,25.498
"2019-06","WOODLANDS","543 WOODLANDS DR 16","543","WOODLANDS DR 16","4 ROOM","01 TO 03","01","03",101,"Model A",2000,"80 years 01 month",80,320000,1.42831492534534,103.793734505831,25.21
"2019-06","WOODLANDS","786C WOODLANDS DR 60","786C","WOODLANDS DR 60","4 ROOM","04 TO 06","04","06",100,"Model A",1997,"77 years 03 months",77,320000,1.44581867717204,103.80106885347,27.539
"2019-07","PUNGGOL","170A PUNGGOL FIELD","170A","PUNGGOL FIELD","4 ROOM","01 TO 03","01","03",93,"Model A",2014,"93 years 09 months",93,370000,1.39356094752398,103.914860704891,17.399
"2019-07","PUNGGOL","296 PUNGGOL CTRL","296","PUNGGOL CTRL","4 ROOM","13 TO 15","13","15",91,"Premium Apartment",2003,"83 years 03 months",83,395000,1.40158819081014,103.905265199203,18.292
"2019-07","PUNGGOL","618D PUNGGOL DR","618D","PUNGGOL DR","4 ROOM","10 TO 12","10","12",93,"Premium Apartment",2013,"93 years 02 months",93,445000,1.40184131856722,103.911466174026,18.819
"2019-07","PUNGGOL","619D PUNGGOL DR","619D","PUNGGOL DR","4 ROOM","01 TO 03","01","03",93,"Premium Apartment",2013,"93 years 02 months",93,450000,1.40211730418562,103.911081490497,18.756
"2019-07","PUNGGOL","619C PUNGGOL DR","619C","PUNGGOL DR","4 ROOM","07 TO 09","07","09",93,"Premium Apartment",2013,"93 years 02 months",93,452000,1.40239328837618,103.910696806603,18.704
"2019-07","PUNGGOL","619A PUNGGOL DR","619A","PUNGGOL DR","4 ROOM","07 TO 09","07","09",93,"Premium Apartment",2013,"93 years 02 months",93,455000,1.40260524216302,103.911426719175,18.9
"2019-07","PUNGGOL","208A PUNGGOL PL","208A","PUNGGOL PL","4 ROOM","04 TO 06","04","06",92,"Model A",2014,"93 years 11 months",93,458888,1.40146324574732,103.900761051711,18.535
"2019-07","PUNGGOL","302A PUNGGOL PL","302A","PUNGGOL PL","4 ROOM","07 TO 09","07","09",93,"Premium Apartment",2011,"90 years 08 months",90,470000,1.40442356621968,103.904444236705,18.354
"2019-07","PUNGGOL","213C PUNGGOL WALK","213C","PUNGGOL WALK","4 ROOM","10 TO 12","10","12",93,"Model A",2015,"94 years 09 months",94,470000,1.4005984949975,103.898920186089,19.271
"2019-07","PUNGGOL","265D PUNGGOL WAY","265D","PUNGGOL WAY","4 ROOM","04 TO 06","04","06",92,"Model A",2015,"94 years 11 months",94,475000,1.40482604982361,103.89830171747,19.138
"2019-07","PUNGGOL","303C PUNGGOL CTRL","303C","PUNGGOL CTRL","4 ROOM","07 TO 09","07","09",93,"Premium Apartment",2010,"90 years 09 months",90,480000,1.4040520620826,103.905300204384,18.255
"2019-07","PUNGGOL","312A SUMANG LINK","312A","SUMANG LINK","4 ROOM","13 TO 15","13","15",92,"Model A",2015,"94 years 11 months",94,498888,1.41081926900094,103.900371677782,19.426
"2019-07","PUNGGOL","313A SUMANG LINK","313A","SUMANG LINK","4 ROOM","07 TO 09","07","09",92,"Model A",2015,"94 years 11 months",94,515000,1.4098518409694,103.901995283996,19.513
"2019-07","PUNGGOL","272D PUNGGOL WALK","272D","PUNGGOL WALK","4 ROOM","13 TO 15","13","15",92,"Premium Apartment",2014,"93 years 09 months",93,523000,1.40273347530835,103.90046347534,18.688
"2019-07","PUNGGOL","266B PUNGGOL WAY","266B","PUNGGOL WAY","4 ROOM","16 TO 18","16","18",92,"Model A",2015,"94 years 11 months",94,528000,1.40557473862472,103.897925654424,18.991
"2019-07","PUNGGOL","274D PUNGGOL PL","274D","PUNGGOL PL","4 ROOM","07 TO 09","07","09",93,"Premium Apartment",2013,"93 years",93,528000,1.40303370918855,103.901688542522,18.934
"2019-07","PUNGGOL","313C SUMANG LINK","313C","SUMANG LINK","4 ROOM","07 TO 09","07","09",92,"Model A",2015,"95 years 08 months",95,535888,1.41062885103467,103.901551852458,19.68
"2019-07","PUNGGOL","271C PUNGGOL WALK","271C","PUNGGOL WALK","4 ROOM","10 TO 12","10","12",93,"Premium Apartment",2014,"93 years 09 months",93,537000,1.40394165900883,103.901034337843,18.751
"2019-07","PUNGGOL","271B PUNGGOL WALK","271B","PUNGGOL WALK","4 ROOM","10 TO 12","10","12",93,"Premium Apartment",2014,"93 years 09 months",93,538888,1.40417054982357,103.900581094235,18.589
"2019-07","PUNGGOL","269A PUNGGOL FIELD","269A","PUNGGOL FIELD","4 ROOM","10 TO 12","10","12",99,"Premium Apartment",2013,"92 years 06 months",92,555500,1.4031490468413,103.898975756502,18.629
"2019-07","PUNGGOL","267B PUNGGOL FIELD","267B","PUNGGOL FIELD","4 ROOM","13 TO 15","13","15",99,"Premium Apartment",2013,"92 years 06 months",92,560000,1.40443273898382,103.897932428343,18.944
"2019-07","QUEENSTOWN","168A QUEENSWAY","168A","QUEENSWAY","4 ROOM","16 TO 18","16","18",84,"Improved",1974,"53 years 11 months",53,408000,1.28928555929927,103.803401515145,6.237
"2019-07","QUEENSTOWN","6 HOLLAND CL","6","HOLLAND CL","4 ROOM","07 TO 09","07","09",86,"Improved",1974,"53 years 11 months",53,510000,1.30711569200945,103.795264623935,7.793
"2019-07","QUEENSTOWN","2 HOLLAND AVE","2","HOLLAND AVE","4 ROOM","19 TO 21","19","21",88,"Improved",1974,"53 years 10 months",53,545000,1.31302913243704,103.794375471653,8.412
"2019-07","QUEENSTOWN","91 TANGLIN HALT RD","91","TANGLIN HALT RD","4 ROOM","04 TO 06","04","06",85,"Model A",2008,"88 years 01 month",88,615000,1.30072792288033,103.799417284922,7.824
"2019-07","QUEENSTOWN","28B DOVER CRES","28B","DOVER CRES","4 ROOM","07 TO 09","07","09",95,"Model A",2012,"91 years 08 months",91,660000,1.30544397285961,103.781869025225,10.491
"2019-07","QUEENSTOWN","28D DOVER CRES","28D","DOVER CRES","4 ROOM","07 TO 09","07","09",95,"Model A",2012,"91 years 08 months",91,7e+05,1.30608315201391,103.782472428347,10.579
"2019-07","QUEENSTOWN","51 STRATHMORE AVE","51","STRATHMORE AVE","4 ROOM","10 TO 12","10","12",90,"Model A",2006,"86 years 03 months",86,710000,1.29335856548885,103.808799765341,5.636
"2019-07","QUEENSTOWN","28B DOVER CRES","28B","DOVER CRES","4 ROOM","16 TO 18","16","18",95,"Model A",2012,"91 years 08 months",91,738000,1.30544397285961,103.781869025225,10.491
"2019-07","QUEENSTOWN","59 STRATHMORE AVE","59","STRATHMORE AVE","4 ROOM","04 TO 06","04","06",96,"Model A",2000,"80 years 03 months",80,742000,1.29318965357037,103.811252591644,5.338
"2019-07","QUEENSTOWN","62B STRATHMORE AVE","62B","STRATHMORE AVE","4 ROOM","07 TO 09","07","09",96,"Model A",2011,"91 years 01 month",91,745000,1.2944605758846,103.810978956227,5.452
"2019-07","QUEENSTOWN","90 TANGLIN HALT RD","90","TANGLIN HALT RD","4 ROOM","19 TO 21","19","21",90,"Model A",2008,"88 years 01 month",88,745000,1.30051700920519,103.79897627676,7.748
"2019-07","QUEENSTOWN","61B STRATHMORE AVE","61B","STRATHMORE AVE","4 ROOM","04 TO 06","04","06",96,"Model A",2011,"91 years 02 months",91,750000,1.29375107969483,103.811956712048,5.507
"2019-07","QUEENSTOWN","91 TANGLIN HALT RD","91","TANGLIN HALT RD","4 ROOM","34 TO 36","34","36",90,"Model A",2008,"88 years 01 month",88,775000,1.30072792288033,103.799417284922,7.824
"2019-07","QUEENSTOWN","23 GHIM MOH LINK","23","GHIM MOH LINK","4 ROOM","28 TO 30","28","30",92,"Model A",2013,"92 years 09 months",92,835000,1.30863562772071,103.786331973494,11.56
"2019-07","QUEENSTOWN","53 C'WEALTH DR","53","C'WEALTH DR","4 ROOM","40 TO 42","40","42",96,"Model A",2015,"94 years 07 months",94,865000,1.30205878257013,103.796581739102,8.023
"2019-07","SEMBAWANG","406 SEMBAWANG DR","406","SEMBAWANG DR","4 ROOM","07 TO 09","07","09",86,"Model A2",2001,"80 years 08 months",80,307000,1.45292980520031,103.816977584813,28.707
"2019-07","SEMBAWANG","411 SEMBAWANG DR","411","SEMBAWANG DR","4 ROOM","04 TO 06","04","06",90,"Model A",2001,"80 years 10 months",80,310000,1.45219746411589,103.817932344079,28.499
"2019-07","SEMBAWANG","589B MONTREAL DR","589B","MONTREAL DR","4 ROOM","01 TO 03","01","03",85,"Model A2",2002,"82 years 05 months",82,316000,1.44967865537361,103.825477345733,25.393
"2019-07","SEMBAWANG","339A SEMBAWANG CL","339A","SEMBAWANG CL","4 ROOM","04 TO 06","04","06",95,"Premium Apartment",2001,"80 years 11 months",80,325000,1.44801536040364,103.81788087791,28.074
"2019-07","SEMBAWANG","313 SEMBAWANG DR","313","SEMBAWANG DR","4 ROOM","07 TO 09","07","09",101,"Model A",1999,"78 years 08 months",78,325000,1.44447224601627,103.821707282924,25.025
"2019-07","SEMBAWANG","331 SEMBAWANG CL","331","SEMBAWANG CL","4 ROOM","10 TO 12","10","12",101,"Model A",1999,"79 years 07 months",79,330000,1.44752857706619,103.816661963955,27.856
"2019-07","SEMBAWANG","324 SEMBAWANG CL","324","SEMBAWANG CL","4 ROOM","07 TO 09","07","09",101,"Model A",1999,"78 years 10 months",78,349888,1.44457098531352,103.81784736593,28.234
"2019-07","SEMBAWANG","590B MONTREAL LINK","590B","MONTREAL LINK","4 ROOM","01 TO 03","01","03",93,"Model A",2015,"94 years 09 months",94,360000,1.45008621870701,103.827067209255,25.19
"2019-07","SEMBAWANG","356A ADMIRALTY DR","356A","ADMIRALTY DR","4 ROOM","13 TO 15","13","15",95,"Premium Apartment",2001,"80 years 11 months",80,368000,1.44944134467676,103.816852385344,28.182
"2019-07","SEMBAWANG","463C SEMBAWANG DR","463C","SEMBAWANG DR","4 ROOM","16 TO 18","16","18",92,"Model A",2015,"94 years 10 months",94,380000,1.45623509145475,103.814292200264,27.263
"2019-07","SEMBAWANG","341B SEMBAWANG CL","341B","SEMBAWANG CL","4 ROOM","07 TO 09","07","09",95,"Premium Apartment",2001,"80 years 11 months",80,385000,1.44798211047398,103.818506856223,28.136
"2019-07","SEMBAWANG","463B SEMBAWANG DR","463B","SEMBAWANG DR","4 ROOM","19 TO 21","19","21",92,"Model A",2015,"94 years 10 months",94,385000,1.45599868966281,103.813971740295,27.219
"2019-07","SEMBAWANG","590C MONTREAL LINK","590C","MONTREAL LINK","4 ROOM","10 TO 12","10","12",93,"Model A",2015,"94 years 09 months",94,390000,1.44994314368403,103.82672063438,25.221
"2019-07","SEMBAWANG","592C MONTREAL LINK","592C","MONTREAL LINK","4 ROOM","13 TO 15","13","15",93,"Model A",2015,"94 years 09 months",94,402000,1.45093931289388,103.828070545183,25.219
"2019-07","SEMBAWANG","590C MONTREAL LINK","590C","MONTREAL LINK","4 ROOM","16 TO 18","16","18",93,"Model A",2015,"94 years 09 months",94,415000,1.44994314368403,103.82672063438,25.221
"2019-07","SEMBAWANG","590C MONTREAL LINK","590C","MONTREAL LINK","4 ROOM","16 TO 18","16","18",93,"Model A",2015,"94 years 09 months",94,415000,1.44994314368403,103.82672063438,25.221
"2019-07","SENGKANG","183D RIVERVALE CRES","183D","RIVERVALE CRES","4 ROOM","07 TO 09","07","09",85,"Model A2",2003,"82 years 11 months",82,315000,1.39145041079796,103.908743124375,16.457
"2019-07","SENGKANG","184C RIVERVALE CRES","184C","RIVERVALE CRES","4 ROOM","07 TO 09","07","09",85,"Model A2",2003,"83 years 11 months",83,329000,1.39255964590728,103.907889895232,16.939
"2019-07","SENGKANG","184A RIVERVALE CRES","184A","RIVERVALE CRES","4 ROOM","07 TO 09","07","09",90,"Model A",2003,"82 years 10 months",82,340000,1.3921257522424,103.907508047408,16.749
"2019-07","SENGKANG","195 RIVERVALE DR","195","RIVERVALE DR","4 ROOM","13 TO 15","13","15",92,"Model A",2001,"81 years",81,340000,1.39282417800809,103.902400185088,18.125
"2019-07","SENGKANG","187B RIVERVALE DR","187B","RIVERVALE DR","4 ROOM","13 TO 15","13","15",91,"Model A",2000,"80 years 05 months",80,348000,1.39429790657459,103.90584757628,16.735
"2019-07","SENGKANG","180C RIVERVALE CRES","180C","RIVERVALE CRES","4 ROOM","01 TO 03","01","03",93,"Model A",2015,"94 years 08 months",94,350000,1.38949150176116,103.90966042653,16.427
"2019-07","SENGKANG","130 RIVERVALE ST","130","RIVERVALE ST","4 ROOM","07 TO 09","07","09",100,"Model A",1999,"78 years 08 months",78,350000,1.38944503867735,103.902653243628,16.407
"2019-07","SENGKANG","311A ANCHORVALE LANE","311A","ANCHORVALE LANE","4 ROOM","07 TO 09","07","09",90,"Premium Apartment",2002,"82 years 03 months",82,353000,1.39096468167495,103.884060305383,18.643
"2019-07","SENGKANG","178C RIVERVALE CRES","178C","RIVERVALE CRES","4 ROOM","01 TO 03","01","03",93,"Model A",2015,"94 years 08 months",94,353000,1.38873270132208,103.910660470449,16.56
"2019-07","SENGKANG","120B RIVERVALE DR","120B","RIVERVALE DR","4 ROOM","01 TO 03","01","03",101,"Premium Apartment",2001,"80 years 08 months",80,355000,1.38579818238123,103.904394269204,15.874
"2019-07","SENGKANG","434A FERNVALE RD","434A","FERNVALE RD","4 ROOM","01 TO 03","01","03",94,"Premium Apartment",2013,"93 years 0 months",93,360000,1.39437366578651,103.876322418463,17.215
"2019-07","SENGKANG","448A SENGKANG WEST WAY","448A","SENGKANG WEST WAY","4 ROOM","01 TO 03","01","03",92,"Model A",2014,"94 years",94,361000,1.39293649855269,103.87299848136,16.559
"2019-07","SENGKANG","318D ANCHORVALE LINK","318D","ANCHORVALE LINK","4 ROOM","01 TO 03","01","03",92,"Premium Apartment",2003,"82 years 08 months",82,364000,1.39314049828612,103.889509691071,17.976
"2019-07","SENGKANG","304A ANCHORVALE LINK","304A","ANCHORVALE LINK","4 ROOM","10 TO 12","10","12",90,"Model A",2002,"81 years 06 months",81,365000,1.38789185501916,103.888922314482,17.64
"2019-07","SENGKANG","105 RIVERVALE WALK","105","RIVERVALE WALK","4 ROOM","04 TO 06","04","06",100,"Model A",1999,"78 years 08 months",78,365000,1.38215613071495,103.900711925224,15.546
"2019-07","SENGKANG","296A COMPASSVALE CRES","296A","COMPASSVALE CRES","4 ROOM","13 TO 15","13","15",90,"Model A",2002,"81 years 06 months",81,366000,1.3970353252163,103.899330986212,18.492
"2019-07","SENGKANG","178D RIVERVALE CRES","178D","RIVERVALE CRES","4 ROOM","10 TO 12","10","12",93,"Model A",2015,"94 years 09 months",94,368000,1.38904079413305,103.91071884624,16.584
"2019-07","SENGKANG","123C RIVERVALE DR","123C","RIVERVALE DR","4 ROOM","10 TO 12","10","12",102,"Model A",1999,"79 years 01 month",79,370000,1.38640852201004,103.902222112406,16.525
"2019-07","SENGKANG","158A RIVERVALE CRES","158A","RIVERVALE CRES","4 ROOM","13 TO 15","13","15",91,"Premium Apartment",2003,"83 years 05 months",83,370000,1.38872018812525,103.906869059805,16.025
"2019-07","SENGKANG","178D RIVERVALE CRES","178D","RIVERVALE CRES","4 ROOM","07 TO 09","07","09",93,"Model A",2015,"94 years 08 months",94,375000,1.38904079413305,103.91071884624,16.584
"2019-07","SENGKANG","407A FERNVALE RD","407A","FERNVALE RD","4 ROOM","13 TO 15","13","15",91,"Premium Apartment",2005,"84 years 06 months",84,380000,1.38826853302736,103.875272052202,16.996
"2019-07","SENGKANG","178A RIVERVALE CRES","178A","RIVERVALE CRES","4 ROOM","13 TO 15","13","15",93,"Model A",2015,"94 years 09 months",94,380000,1.38897323682802,103.909651586289,16.377
"2019-07","SENGKANG","206A COMPASSVALE LANE","206A","COMPASSVALE LANE","4 ROOM","07 TO 09","07","09",101,"Model A",1999,"79 years 04 months",79,383000,1.38648067876187,103.896739898472,16.019
"2019-07","SENGKANG","410A FERNVALE RD","410A","FERNVALE RD","4 ROOM","01 TO 03","01","03",95,"Premium Apartment",2012,"92 years 04 months",92,383000,1.39005269523174,103.875940509386,17.096
"2019-07","SENGKANG","203C COMPASSVALE RD","203C","COMPASSVALE RD","4 ROOM","13 TO 15","13","15",90,"Model A",2001,"80 years 07 months",80,385000,1.38681200686527,103.895283375622,18.161
"2019-07","SENGKANG","408C FERNVALE RD","408C","FERNVALE RD","4 ROOM","07 TO 09","07","09",95,"Premium Apartment",2005,"84 years 07 months",84,385000,1.38924471342298,103.876556317593,17.052
"2019-07","SENGKANG","178B RIVERVALE CRES","178B","RIVERVALE CRES","4 ROOM","16 TO 18","16","18",93,"Model A",2015,"94 years 08 months",94,390000,1.38854689304718,103.910034044279,16.51
"2019-07","SENGKANG","403B FERNVALE LANE","403B","FERNVALE LANE","4 ROOM","13 TO 15","13","15",94,"Premium Apartment",2004,"83 years 09 months",83,395000,1.38879143490193,103.872979832028,16.44
"2019-07","SENGKANG","209C COMPASSVALE LANE","209C","COMPASSVALE LANE","4 ROOM","01 TO 03","01","03",92,"Model A",2011,"91 years 04 months",91,395000,1.38399373466045,103.899173530483,16.182
"2019-07","SENGKANG","107 RIVERVALE WALK","107","RIVERVALE WALK","4 ROOM","13 TO 15","13","15",105,"Model A",1999,"78 years 07 months",78,398000,1.38300501325196,103.900272453522,15.633
"2019-07","SENGKANG","430A FERNVALE LINK","430A","FERNVALE LINK","4 ROOM","10 TO 12","10","12",92,"Model A",2015,"94 years 10 months",94,4e+05,1.39387016239186,103.878517201425,17.696
"2019-07","SENGKANG","178A RIVERVALE CRES","178A","RIVERVALE CRES","4 ROOM","13 TO 15","13","15",93,"Model A",2015,"94 years 08 months",94,4e+05,1.38897323682802,103.909651586289,16.377
"2019-07","SENGKANG","314D ANCHORVALE LINK","314D","ANCHORVALE LINK","4 ROOM","07 TO 09","07","09",92,"Premium Apartment",2003,"82 years 10 months",82,405000,1.39142658189252,103.889253370265,17.83
"2019-07","SENGKANG","451A SENGKANG WEST WAY","451A","SENGKANG WEST WAY","4 ROOM","07 TO 09","07","09",92,"Model A",2015,"94 years 10 months",94,405000,1.39434919388296,103.874053796487,16.882
"2019-07","SENGKANG","441A FERNVALE RD","441A","FERNVALE RD","4 ROOM","10 TO 12","10","12",92,"Model A",2012,"91 years 07 months",91,410000,1.39109783626622,103.875166223525,16.828
"2019-07","SENGKANG","452A SENGKANG WEST WAY","452A","SENGKANG WEST WAY","4 ROOM","13 TO 15","13","15",92,"Model A",2015,"94 years 10 months",94,410000,1.39354732029357,103.874486020747,17.087
"2019-07","SENGKANG","441A FERNVALE RD","441A","FERNVALE RD","4 ROOM","07 TO 09","07","09",92,"Model A",2012,"91 years 07 months",91,412000,1.39109783626622,103.875166223525,16.828
"2019-07","SENGKANG","434B FERNVALE RD","434B","FERNVALE RD","4 ROOM","07 TO 09","07","09",94,"Premium Apartment",2013,"92 years 11 months",92,412000,1.39460960429021,103.876585517065,17.294
"2019-07","SENGKANG","435A FERNVALE RD","435A","FERNVALE RD","4 ROOM","07 TO 09","07","09",94,"Premium Apartment",2013,"92 years 11 months",92,415000,1.39339897949587,103.876290547918,17.167
"2019-07","SENGKANG","447A JLN KAYU","447A","JLN KAYU","4 ROOM","16 TO 18","16","18",94,"Model A",2013,"93 years 04 months",93,415000,1.39213828470085,103.872490555974,16.476
"2019-07","SENGKANG","332C ANCHORVALE LINK","332C","ANCHORVALE LINK","4 ROOM","01 TO 03","01","03",92,"Model A",2015,"94 years 11 months",94,416000,1.39500219567352,103.891960984474,18.181
"2019-07","SENGKANG","434B FERNVALE RD","434B","FERNVALE RD","4 ROOM","22 TO 24","22","24",94,"Premium Apartment",2013,"92 years 11 months",92,418000,1.39460960429021,103.876585517065,17.294
"2019-07","SENGKANG","441D FERNVALE RD","441D","FERNVALE RD","4 ROOM","10 TO 12","10","12",93,"Model A",2012,"91 years 07 months",91,420000,1.39209223539633,103.875248015845,17.538
"2019-07","SENGKANG","410C FERNVALE RD","410C","FERNVALE RD","4 ROOM","16 TO 18","16","18",95,"Premium Apartment",2012,"92 years 04 months",92,425000,1.38993920373878,103.876479595851,17.058
"2019-07","SENGKANG","452B SENGKANG WEST WAY","452B","SENGKANG WEST WAY","4 ROOM","07 TO 09","07","09",92,"Model A",2015,"94 years 10 months",94,425000,1.39359219975011,103.873975642578,16.981
"2019-07","SENGKANG","209B COMPASSVALE LANE","209B","COMPASSVALE LANE","4 ROOM","16 TO 18","16","18",92,"Model A",2011,"91 years 04 months",91,428000,1.38381273696568,103.898807645852,16.182
"2019-07","SENGKANG","451A SENGKANG WEST WAY","451A","SENGKANG WEST WAY","4 ROOM","16 TO 18","16","18",92,"Model A",2015,"94 years 11 months",94,428000,1.39434919388296,103.874053796487,16.882
"2019-07","SENGKANG","435C FERNVALE RD","435C","FERNVALE RD","4 ROOM","07 TO 09","07","09",94,"Premium Apartment",2013,"92 years 11 months",92,430000,1.39359978788204,103.876912987517,17.338
"2019-07","SENGKANG","430D FERNVALE LINK","430D","FERNVALE LINK","4 ROOM","16 TO 18","16","18",92,"Model A",2015,"94 years 10 months",94,430000,1.3948267807044,103.878003319945,17.405
"2019-07","SENGKANG","410A FERNVALE RD","410A","FERNVALE RD","4 ROOM","16 TO 18","16","18",95,"Premium Apartment",2012,"92 years 05 months",92,432000,1.39005269523174,103.875940509386,17.096
"2019-07","SENGKANG","411A FERNVALE RD","411A","FERNVALE RD","4 ROOM","13 TO 15","13","15",95,"Premium Apartment",2012,"92 years 04 months",92,432000,1.39054817088696,103.876908514512,17.25
"2019-07","SENGKANG","453B FERNVALE RD","453B","FERNVALE RD","4 ROOM","13 TO 15","13","15",92,"Model A",2015,"95 years 01 month",95,435000,1.3942988861693,103.875110781799,17.014
"2019-07","SENGKANG","430B FERNVALE LINK","430B","FERNVALE LINK","4 ROOM","19 TO 21","19","21",92,"Model A",2015,"94 years 10 months",94,438000,1.39390769406304,103.8782232872,17.74
"2019-07","SENGKANG","435B FERNVALE RD","435B","FERNVALE RD","4 ROOM","10 TO 12","10","12",94,"Premium Apartment",2013,"92 years 11 months",92,438000,1.39339364366596,103.876644854346,17.214
"2019-07","SENGKANG","410A FERNVALE RD","410A","FERNVALE RD","4 ROOM","19 TO 21","19","21",96,"Premium Apartment",2012,"92 years 04 months",92,440000,1.39005269523174,103.875940509386,17.096
"2019-07","SENGKANG","332C ANCHORVALE LINK","332C","ANCHORVALE LINK","4 ROOM","04 TO 06","04","06",92,"Model A",2015,"94 years 11 months",94,445000,1.39500219567352,103.891960984474,18.181
"2019-07","SENGKANG","326D ANCHORVALE RD","326D","ANCHORVALE RD","4 ROOM","01 TO 03","01","03",92,"Premium Apartment",2015,"94 years 09 months",94,445000,1.39613052938418,103.888097116033,18.613
"2019-07","SENGKANG","410B FERNVALE RD","410B","FERNVALE RD","4 ROOM","07 TO 09","07","09",95,"Premium Apartment",2012,"92 years 04 months",92,448000,1.38978938889476,103.876096713603,17.018
"2019-07","SENGKANG","211C COMPASSVALE LANE","211C","COMPASSVALE LANE","4 ROOM","10 TO 12","10","12",93,"Model A",2013,"92 years 07 months",92,450000,1.38514491225734,103.899291177027,16.076
"2019-07","SENGKANG","440A FERNVALE LINK","440A","FERNVALE LINK","4 ROOM","25 TO 27","25","27",92,"Model A",2015,"95 years",95,450000,1.39318853941818,103.878692030242,17.726
"2019-07","SENGKANG","452A SENGKANG WEST WAY","452A","SENGKANG WEST WAY","4 ROOM","19 TO 21","19","21",92,"Model A",2015,"94 years 10 months",94,450000,1.39354732029357,103.874486020747,17.087
"2019-07","SENGKANG","453D FERNVALE RD","453D","FERNVALE RD","4 ROOM","22 TO 24","22","24",92,"Model A",2015,"95 years 04 months",95,456500,1.39341707295426,103.875340178233,17.217
"2019-07","SENGKANG","332B ANCHORVALE LINK","332B","ANCHORVALE LINK","4 ROOM","10 TO 12","10","12",92,"Model A",2015,"94 years 11 months",94,460000,1.39510794817993,103.891456224107,18.951
"2019-07","SENGKANG","326A ANCHORVALE RD","326A","ANCHORVALE RD","4 ROOM","07 TO 09","07","09",92,"Premium Apartment",2015,"94 years 09 months",94,460000,1.39491417297588,103.88800013779,18.653
"2019-07","SENGKANG","326C ANCHORVALE RD","326C","ANCHORVALE RD","4 ROOM","07 TO 09","07","09",92,"Premium Apartment",2015,"94 years 09 months",94,460000,1.39571712840417,103.888065431995,18.521
"2019-07","SENGKANG","327C ANCHORVALE RD","327C","ANCHORVALE RD","4 ROOM","07 TO 09","07","09",92,"Premium Apartment",2015,"94 years 09 months",94,460000,1.39609319862488,103.888720918656,18.668
"2019-07","SENGKANG","433A SENGKANG WEST WAY","433A","SENGKANG WEST WAY","4 ROOM","22 TO 24","22","24",93,"Model A",2014,"94 years 04 months",94,468888,1.39494947298112,103.877566961287,17.253
"2019-07","SENGKANG","213B COMPASSVALE LANE","213B","COMPASSVALE LANE","4 ROOM","16 TO 18","16","18",100,"Premium Apartment",2012,"92 years 03 months",92,470000,1.38553943564032,103.900780778782,16.208
"2019-07","SENGKANG","264F COMPASSVALE BOW","264F","COMPASSVALE BOW","4 ROOM","04 TO 06","04","06",92,"Premium Apartment",2008,"88 years 02 months",88,472000,1.38172125180474,103.895197996712,17.032
"2019-07","SENGKANG","333D ANCHORVALE LINK","333D","ANCHORVALE LINK","4 ROOM","07 TO 09","07","09",92,"Model A",2015,"94 years 11 months",94,472500,1.39422494446126,103.892243948665,17.996
"2019-07","SENGKANG","329A ANCHORVALE ST","329A","ANCHORVALE ST","4 ROOM","16 TO 18","16","18",92,"Model A",2015,"95 years 01 month",95,475000,1.39619302195076,103.88972181068,19.1
"2019-07","SENGKANG","332B ANCHORVALE LINK","332B","ANCHORVALE LINK","4 ROOM","13 TO 15","13","15",92,"Model A",2015,"94 years 11 months",94,478000,1.39510794817993,103.891456224107,18.951
"2019-07","SENGKANG","333C ANCHORVALE LINK","333C","ANCHORVALE LINK","4 ROOM","13 TO 15","13","15",92,"Model A",2015,"95 years 04 months",95,480000,1.39441572025048,103.891773836701,18.059
"2019-07","SENGKANG","333B ANCHORVALE LINK","333B","ANCHORVALE LINK","4 ROOM","13 TO 15","13","15",92,"Model A",2015,"95 years",95,490000,1.39457895953303,103.891425367847,18.088
"2019-07","SENGKANG","453C FERNVALE RD","453C","FERNVALE RD","4 ROOM","22 TO 24","22","24",92,"Model A",2015,"95 years",95,492000,1.39353259342993,103.875029902679,17.228
"2019-07","SENGKANG","332C ANCHORVALE LINK","332C","ANCHORVALE LINK","4 ROOM","16 TO 18","16","18",92,"Model A",2015,"94 years 11 months",94,495000,1.39500219567352,103.891960984474,18.181
"2019-07","SENGKANG","281A SENGKANG EAST AVE","281A","SENGKANG EAST AVE","4 ROOM","04 TO 06","04","06",92,"Premium Apartment",2015,"95 years 01 month",95,515000,1.38609224063789,103.891561108663,17.172
"2019-07","SENGKANG","282A SENGKANG EAST AVE","282A","SENGKANG EAST AVE","4 ROOM","01 TO 03","01","03",92,"Premium Apartment",2015,"95 years 01 month",95,526000,1.38528977819863,103.891907359174,17.357
"2019-07","SENGKANG","275A COMPASSVALE LINK","275A","COMPASSVALE LINK","4 ROOM","07 TO 09","07","09",90,"Premium Apartment",2009,"88 years 11 months",88,540000,1.38291029056779,103.894452829323,17.125
"2019-07","SENGKANG","281B SENGKANG EAST AVE","281B","SENGKANG EAST AVE","4 ROOM","13 TO 15","13","15",92,"Premium Apartment",2015,"95 years 01 month",95,555000,1.38572827063194,103.891859598966,17.258
"2019-07","SENGKANG","275B COMPASSVALE LINK","275B","COMPASSVALE LINK","4 ROOM","10 TO 12","10","12",92,"Premium Apartment",2009,"88 years 11 months",88,560000,1.38333897024769,103.894522123516,17.118
"2019-07","SENGKANG","275A COMPASSVALE LINK","275A","COMPASSVALE LINK","4 ROOM","10 TO 12","10","12",90,"Premium Apartment",2009,"88 years 11 months",88,570000,1.38291029056779,103.894452829323,17.125
"2019-07","SENGKANG","281B SENGKANG EAST AVE","281B","SENGKANG EAST AVE","4 ROOM","10 TO 12","10","12",92,"Premium Apartment",2015,"95 years 01 month",95,578000,1.38572827063194,103.891859598966,17.258
"2019-07","SENGKANG","282B SENGKANG EAST AVE","282B","SENGKANG EAST AVE","4 ROOM","10 TO 12","10","12",92,"Premium Apartment",2015,"95 years 01 month",95,578000,1.38485976013908,103.891992672767,17.41
"2019-07","SERANGOON","115 SERANGOON NTH AVE 1","115","SERANGOON NTH AVE 1","4 ROOM","04 TO 06","04","06",93,"New Generation",1985,"64 years 08 months",64,342000,1.3681312354317,103.870576991283,13.821
"2019-07","SERANGOON","109 SERANGOON NTH AVE 1","109","SERANGOON NTH AVE 1","4 ROOM","07 TO 09","07","09",91,"New Generation",1985,"64 years 10 months",64,358000,1.36943351823831,103.870511407041,13.824
"2019-07","SERANGOON","548 SERANGOON NTH AVE 3","548","SERANGOON NTH AVE 3","4 ROOM","04 TO 06","04","06",101,"Model A",1998,"77 years 06 months",77,360000,1.3729365228676,103.870717075897,13.86
"2019-07","SERANGOON","538 SERANGOON NTH AVE 4","538","SERANGOON NTH AVE 4","4 ROOM","01 TO 03","01","03",103,"Model A",1992,"72 years 04 months",72,365000,1.37491459857485,103.873217877598,13.892
"2019-07","SERANGOON","508 SERANGOON NTH AVE 4","508","SERANGOON NTH AVE 4","4 ROOM","01 TO 03","01","03",101,"Model A",1997,"76 years 11 months",76,385000,1.37184770991728,103.875761256028,14.322
"2019-07","SERANGOON","114 SERANGOON NTH AVE 1","114","SERANGOON NTH AVE 1","4 ROOM","07 TO 09","07","09",98,"New Generation",1986,"65 years 08 months",65,388000,1.3688522558684,103.871488888571,13.684
"2019-07","SERANGOON","524 SERANGOON NTH AVE 4","524","SERANGOON NTH AVE 4","4 ROOM","07 TO 09","07","09",104,"Model A",1992,"72 years 04 months",72,397500,1.37269507866103,103.872856788426,13.947
"2019-07","SERANGOON","514 SERANGOON NTH AVE 4","514","SERANGOON NTH AVE 4","4 ROOM","07 TO 09","07","09",103,"Model A",1992,"72 years 03 months",72,410000,1.37089010645534,103.874391232178,14.268
"2019-07","SERANGOON","308 SERANGOON AVE 2","308","SERANGOON AVE 2","4 ROOM","04 TO 06","04","06",95,"New Generation",1985,"64 years 10 months",64,422000,1.35417532963527,103.865967051985,12.096
"2019-07","SERANGOON","323 SERANGOON AVE 3","323","SERANGOON AVE 3","4 ROOM","01 TO 03","01","03",89,"Simplified",1985,"65 years 05 months",65,430000,1.35116857435372,103.869408469694,12.303
"2019-07","SERANGOON","217 SERANGOON AVE 4","217","SERANGOON AVE 4","4 ROOM","10 TO 12","10","12",91,"New Generation",1984,"64 years 03 months",64,460000,1.35760697804251,103.872261070554,12.35
"2019-07","SERANGOON","326 SERANGOON AVE 3","326","SERANGOON AVE 3","4 ROOM","04 TO 06","04","06",89,"Simplified",1985,"65 years 05 months",65,468000,1.35035649046181,103.868996264219,12.319
"2019-07","SERANGOON","205 SERANGOON CTRL","205","SERANGOON CTRL","4 ROOM","10 TO 12","10","12",84,"Simplified",1986,"66 years 04 months",66,5e+05,1.35278468169196,103.873446716868,11.637
"2019-07","SERANGOON","410 SERANGOON CTRL","410","SERANGOON CTRL","4 ROOM","10 TO 12","10","12",93,"New Generation",1989,"68 years 07 months",68,5e+05,1.34777896722642,103.873842922123,11.422
"2019-07","SERANGOON","242 SERANGOON AVE 3","242","SERANGOON AVE 3","4 ROOM","07 TO 09","07","09",84,"Simplified",1986,"65 years 10 months",65,510000,1.35269591874852,103.869711017596,12.355
"2019-07","SERANGOON","420 SERANGOON CTRL","420","SERANGOON CTRL","4 ROOM","04 TO 06","04","06",105,"Model A",1989,"69 years 04 months",69,570000,1.34914910857959,103.875117043231,11.394
"2019-07","SERANGOON","231 SERANGOON AVE 3","231","SERANGOON AVE 3","4 ROOM","07 TO 09","07","09",104,"Model A",1985,"65 years 10 months",65,570000,1.35501762599795,103.868367739693,12.247
"2019-07","SERANGOON","325 SERANGOON AVE 3","325","SERANGOON AVE 3","4 ROOM","01 TO 03","01","03",104,"Model A",1986,"65 years 10 months",65,575888,1.35093759016541,103.868683014792,12.176
"2019-07","SERANGOON","315 SERANGOON AVE 2","315","SERANGOON AVE 2","4 ROOM","10 TO 12","10","12",104,"New Generation",1985,"64 years 10 months",64,595000,1.35293445761679,103.865970806633,12.105
"2019-07","SERANGOON","332 SERANGOON AVE 3","332","SERANGOON AVE 3","4 ROOM","07 TO 09","07","09",103,"Model A",1986,"65 years 08 months",65,6e+05,1.35101719466947,103.870185119998,12.368
"2019-07","SERANGOON","409 SERANGOON CTRL","409","SERANGOON CTRL","4 ROOM","10 TO 12","10","12",111,"Model A",1989,"68 years 06 months",68,655000,1.34814760717489,103.874419496654,11.367
"2019-07","TAMPINES","451 TAMPINES ST 42","451","TAMPINES ST 42","4 ROOM","01 TO 03","01","03",84,"Simplified",1987,"67 years 04 months",67,370000,1.35657751681143,103.953994305986,21.45
"2019-07","TAMPINES","840 TAMPINES ST 82","840","TAMPINES ST 82","4 ROOM","04 TO 06","04","06",84,"Simplified",1986,"65 years 06 months",65,370000,1.35114217702738,103.935616862084,18.369
"2019-07","TAMPINES","153 SIMEI ST 1","153","SIMEI ST 1","4 ROOM","04 TO 06","04","06",84,"Simplified",1988,"68 years 09 months",68,372000,1.3452227593795,103.957207660008,19.864
"2019-07","TAMPINES","295 TAMPINES ST 22","295","TAMPINES ST 22","4 ROOM","01 TO 03","01","03",104,"Model A",1984,"63 years 08 months",63,380000,1.35078046855695,103.954999561007,19.388
"2019-07","TAMPINES","363 TAMPINES ST 34","363","TAMPINES ST 34","4 ROOM","01 TO 03","01","03",107,"Model A",1996,"75 years 08 months",75,380000,1.3555206788848,103.960860222796,22.392
"2019-07","TAMPINES","470 TAMPINES ST 44","470","TAMPINES ST 44","4 ROOM","07 TO 09","07","09",84,"Simplified",1986,"65 years 10 months",65,380000,1.3608152793445,103.954640346689,21.471
"2019-07","TAMPINES","102 TAMPINES ST 11","102","TAMPINES ST 11","4 ROOM","04 TO 06","04","06",108,"Model A",1983,"63 years 03 months",63,386000,1.34671616267656,103.945521388285,18.327
"2019-07","TAMPINES","458 TAMPINES ST 42","458","TAMPINES ST 42","4 ROOM","04 TO 06","04","06",84,"Simplified",1988,"67 years 07 months",67,388000,1.35798075724836,103.954550016234,21.301
"2019-07","TAMPINES","871 TAMPINES ST 84","871","TAMPINES ST 84","4 ROOM","04 TO 06","04","06",104,"Model A",1988,"68 years 03 months",68,390000,1.35440347555796,103.932702293995,14.594
"2019-07","TAMPINES","229 TAMPINES ST 23","229","TAMPINES ST 23","4 ROOM","04 TO 06","04","06",98,"New Generation",1985,"64 years 10 months",64,390000,1.35593143453856,103.953944534569,21.102
"2019-07","TAMPINES","872 TAMPINES ST 84","872","TAMPINES ST 84","4 ROOM","07 TO 09","07","09",104,"Model A",1988,"68 years 05 months",68,390000,1.35422172661633,103.932354147638,14.532
"2019-07","TAMPINES","117 SIMEI ST 1","117","SIMEI ST 1","4 ROOM","04 TO 06","04","06",84,"Simplified",1988,"67 years 09 months",67,391000,1.34458555119791,103.951315573207,19.003
"2019-07","TAMPINES","811 TAMPINES AVE 4","811","TAMPINES AVE 4","4 ROOM","01 TO 03","01","03",91,"New Generation",1985,"64 years 08 months",64,392000,1.34656173045585,103.937340025822,17.736
"2019-07","TAMPINES","283 TAMPINES ST 22","283","TAMPINES ST 22","4 ROOM","10 TO 12","10","12",103,"Model A",1984,"64 years 02 months",64,395000,1.34862955734174,103.952853471968,19.453
"2019-07","TAMPINES","346 TAMPINES ST 33","346","TAMPINES ST 33","4 ROOM","07 TO 09","07","09",108,"Model A",1996,"75 years 11 months",75,395000,1.35123791586186,103.962570614009,21.542
"2019-07","TAMPINES","735 TAMPINES ST 72","735","TAMPINES ST 72","4 ROOM","04 TO 06","04","06",100,"Model A",1997,"77 years 05 months",77,397000,1.35957584140664,103.934155801397,15.039
"2019-07","TAMPINES","256 TAMPINES ST 21","256","TAMPINES ST 21","4 ROOM","04 TO 06","04","06",98,"New Generation",1984,"64 years 05 months",64,4e+05,1.35323572708512,103.949946614899,21.049
"2019-07","TAMPINES","212 TAMPINES ST 23","212","TAMPINES ST 23","4 ROOM","10 TO 12","10","12",104,"Model A",1985,"64 years 09 months",64,410000,1.35443416250724,103.954404790753,20.955
"2019-07","TAMPINES","338 TAMPINES ST 33","338","TAMPINES ST 33","4 ROOM","04 TO 06","04","06",107,"Model A",1995,"75 years 05 months",75,410000,1.35191835181459,103.959646784075,21.083
"2019-07","TAMPINES","497H TAMPINES ST 45","497H","TAMPINES ST 45","4 ROOM","04 TO 06","04","06",109,"Premium Apartment",1996,"75 years 11 months",75,410000,1.35964878769781,103.959908216319,22.474
"2019-07","TAMPINES","401 TAMPINES ST 41","401","TAMPINES ST 41","4 ROOM","07 TO 09","07","09",84,"Simplified",1985,"65 years 02 months",65,415000,1.3570728680964,103.944912676662,20.069
"2019-07","TAMPINES","865 TAMPINES ST 83","865","TAMPINES ST 83","4 ROOM","04 TO 06","04","06",104,"Model A",1989,"68 years 10 months",68,415000,1.35389242521044,103.934251462733,14.717
"2019-07","TAMPINES","866 TAMPINES ST 83","866","TAMPINES ST 83","4 ROOM","01 TO 03","01","03",102,"Model A",1989,"68 years 10 months",68,418000,1.35425061217797,103.934476874643,14.868
"2019-07","TAMPINES","366 TAMPINES ST 34","366","TAMPINES ST 34","4 ROOM","07 TO 09","07","09",100,"Model A",1997,"76 years 09 months",76,420000,1.35761758572121,103.961378989065,22.406
"2019-07","TAMPINES","418 TAMPINES ST 41","418","TAMPINES ST 41","4 ROOM","01 TO 03","01","03",105,"Model A",1985,"65 years",65,420000,1.3582722131871,103.947308949059,19.909
"2019-07","TAMPINES","162 SIMEI RD","162","SIMEI RD","4 ROOM","01 TO 03","01","03",104,"Model A",1989,"68 years 08 months",68,420000,1.34571936968925,103.959934930653,19.993
"2019-07","TAMPINES","232 SIMEI ST 4","232","SIMEI ST 4","4 ROOM","04 TO 06","04","06",104,"Model A",1989,"69 years 01 month",69,420000,1.34421274800842,103.957156790989,19.202
"2019-07","TAMPINES","248 TAMPINES ST 21","248","TAMPINES ST 21","4 ROOM","01 TO 03","01","03",91,"New Generation",1984,"64 years 05 months",64,420000,1.35191019042837,103.947108773379,19.82
"2019-07","TAMPINES","221 TAMPINES ST 24","221","TAMPINES ST 24","4 ROOM","04 TO 06","04","06",104,"Model A",1984,"64 years 04 months",64,420000,1.35516056233115,103.952361056234,20.967
"2019-07","TAMPINES","321 TAMPINES ST 33","321","TAMPINES ST 33","4 ROOM","04 TO 06","04","06",109,"Model A",1995,"75 years 03 months",75,420000,1.35069890623764,103.957515688038,21.154
"2019-07","TAMPINES","716 TAMPINES ST 71","716","TAMPINES ST 71","4 ROOM","07 TO 09","07","09",99,"Model A",1997,"76 years 10 months",76,420000,1.35938987364854,103.936632842041,15.218
"2019-07","TAMPINES","414 TAMPINES ST 41","414","TAMPINES ST 41","4 ROOM","04 TO 06","04","06",103,"Model A",1987,"66 years 11 months",66,420888,1.35981195619451,103.946549508112,19.814
"2019-07","TAMPINES","119 SIMEI ST 1","119","SIMEI ST 1","4 ROOM","01 TO 03","01","03",104,"Model A",1988,"67 years 10 months",67,425000,1.34375761097247,103.951897833309,18.904
"2019-07","TAMPINES","104 TAMPINES ST 11","104","TAMPINES ST 11","4 ROOM","07 TO 09","07","09",104,"Model A",1982,"62 years 03 months",62,425000,1.34720576651075,103.946641750013,18.452
"2019-07","TAMPINES","465 TAMPINES ST 44","465","TAMPINES ST 44","4 ROOM","04 TO 06","04","06",104,"Model A",1987,"66 years 09 months",66,425000,1.35958715134524,103.954664155456,21.503
"2019-07","TAMPINES","913 TAMPINES ST 91","913","TAMPINES ST 91","4 ROOM","01 TO 03","01","03",104,"Model A",1984,"63 years 10 months",63,427000,1.34886928075247,103.938985222573,17.909
"2019-07","TAMPINES","854 TAMPINES ST 82","854","TAMPINES ST 82","4 ROOM","01 TO 03","01","03",103,"Model A",1985,"65 years 02 months",65,428000,1.35302683671628,103.936584448142,18.678
"2019-07","TAMPINES","270 TAMPINES ST 21","270","TAMPINES ST 21","4 ROOM","04 TO 06","04","06",116,"Model A",1985,"65 years 05 months",65,435000,1.34963011004171,103.948635174972,19.095
"2019-07","TAMPINES","708 TAMPINES ST 71","708","TAMPINES ST 71","4 ROOM","04 TO 06","04","06",101,"Model A",1997,"76 years 11 months",76,435000,1.35799200738946,103.936892456311,15.105
"2019-07","TAMPINES","924 TAMPINES ST 91","924","TAMPINES ST 91","4 ROOM","10 TO 12","10","12",104,"Model A",1983,"63 years 04 months",63,435000,1.34679100571296,103.940776965834,18.16
"2019-07","TAMPINES","907 TAMPINES AVE 4","907","TAMPINES AVE 4","4 ROOM","10 TO 12","10","12",104,"Model A",1984,"64 years 03 months",64,440000,1.35061228147276,103.939397414558,18.504
"2019-07","TAMPINES","450 TAMPINES ST 42","450","TAMPINES ST 42","4 ROOM","10 TO 12","10","12",104,"Model A",1985,"64 years 06 months",64,440000,1.35742126002469,103.951661274552,21.681
"2019-07","TAMPINES","498D TAMPINES ST 45","498D","TAMPINES ST 45","4 ROOM","07 TO 09","07","09",106,"Premium Apartment",1997,"76 years 09 months",76,440000,1.36111348630544,103.959594699613,22.829
"2019-07","TAMPINES","848 TAMPINES ST 82","848","TAMPINES ST 82","4 ROOM","07 TO 09","07","09",107,"Model A",1985,"65 years 02 months",65,447000,1.35247582900131,103.936057412249,18.616
"2019-07","TAMPINES","273 TAMPINES ST 22","273","TAMPINES ST 22","4 ROOM","10 TO 12","10","12",105,"Model A",1984,"64 years",64,448388,1.3486918230885,103.95042750892,19.098
"2019-07","TAMPINES","262 TAMPINES ST 21","262","TAMPINES ST 21","4 ROOM","10 TO 12","10","12",103,"Model A",1984,"64 years 06 months",64,450000,1.35375663916488,103.950970401367,21.092
"2019-07","TAMPINES","373 TAMPINES ST 34","373","TAMPINES ST 34","4 ROOM","01 TO 03","01","03",111,"Model A",1995,"75 years 02 months",75,450000,1.3560218473311,103.958780627307,22.154
"2019-07","TAMPINES","932 TAMPINES ST 91","932","TAMPINES ST 91","4 ROOM","04 TO 06","04","06",102,"Model A",1985,"65 years 05 months",65,455000,1.3456002103285,103.939441311085,17.935
"2019-07","TAMPINES","859A TAMPINES AVE 5","859A","TAMPINES AVE 5","4 ROOM","10 TO 12","10","12",104,"Model A",1988,"67 years 09 months",67,455000,1.35506307407851,103.938057162871,15.554
"2019-07","TAMPINES","269 TAMPINES ST 21","269","TAMPINES ST 21","4 ROOM","04 TO 06","04","06",104,"Model A",1984,"63 years 09 months",63,455000,1.35074543601676,103.948024392634,19.303
"2019-07","TAMPINES","277 TAMPINES ST 22","277","TAMPINES ST 22","4 ROOM","07 TO 09","07","09",108,"Model A",1985,"64 years 08 months",64,455000,1.34727819641372,103.951193517105,19.373
"2019-07","TAMPINES","450A TAMPINES ST 42","450A","TAMPINES ST 42","4 ROOM","07 TO 09","07","09",106,"Model A",1996,"76 years 04 months",76,460000,1.35836069232233,103.952252203064,21.524
"2019-07","TAMPINES","705 TAMPINES ST 71","705","TAMPINES ST 71","4 ROOM","10 TO 12","10","12",99,"Model A",1997,"77 years",77,460000,1.35711597364175,103.937284846318,15.213
"2019-07","TAMPINES","270 TAMPINES ST 21","270","TAMPINES ST 21","4 ROOM","07 TO 09","07","09",104,"Model A",1985,"65 years 05 months",65,470000,1.34963011004171,103.948635174972,19.095
"2019-07","TAMPINES","842H TAMPINES ST 82","842H","TAMPINES ST 82","4 ROOM","16 TO 18","16","18",106,"Model A",1995,"75 years 02 months",75,492000,1.35161667861579,103.937070511177,18.636
"2019-07","TAMPINES","869A TAMPINES AVE 8","869A","TAMPINES AVE 8","4 ROOM","07 TO 09","07","09",92,"Model A",2015,"94 years 11 months",94,495000,1.35501799093941,103.93231742743,14.452
"2019-07","TAMPINES","869B TAMPINES AVE 8","869B","TAMPINES AVE 8","4 ROOM","10 TO 12","10","12",92,"Model A",2015,"95 years",95,5e+05,1.35485562982979,103.932709165692,14.569
"2019-07","TAMPINES","869A TAMPINES AVE 8","869A","TAMPINES AVE 8","4 ROOM","10 TO 12","10","12",92,"Model A",2015,"94 years 11 months",94,5e+05,1.35501799093941,103.93231742743,14.452
"2019-07","TAMPINES","246 SIMEI ST 5","246","SIMEI ST 5","4 ROOM","04 TO 06","04","06",105,"Model A",1997,"76 years 06 months",76,505000,1.34505922260533,103.954165735566,19.168
"2019-07","TAMPINES","505 TAMPINES CTRL 1","505","TAMPINES CTRL 1","4 ROOM","07 TO 09","07","09",103,"Model A",1989,"69 years 01 month",69,515000,1.3555484823662,103.945616071023,19.419
"2019-07","TAMPINES","868A TAMPINES AVE 8","868A","TAMPINES AVE 8","4 ROOM","10 TO 12","10","12",92,"Model A",2015,"94 years 11 months",94,520000,1.35544681770999,103.932544278099,14.406
"2019-07","TAMPINES","161 TAMPINES ST 12","161","TAMPINES ST 12","4 ROOM","07 TO 09","07","09",103,"Model A",1984,"64 years 02 months",64,550000,1.35000084839602,103.945978324355,19.113
"2019-07","TAMPINES","523C TAMPINES CTRL 7","523C","TAMPINES CTRL 7","4 ROOM","13 TO 15","13","15",93,"Model A",2015,"95 years 01 month",95,6e+05,1.35988670789408,103.938870018657,19.622
"2019-07","TAMPINES","522A TAMPINES CTRL 7","522A","TAMPINES CTRL 7","4 ROOM","16 TO 18","16","18",93,"Model A",2015,"95 years 02 months",95,615000,1.3577691377884,103.938391967692,19.499
"2019-07","TAMPINES","167C SIMEI LANE","167C","SIMEI LANE","4 ROOM","10 TO 12","10","12",94,"DBSS",2011,"90 years 07 months",90,640000,1.3430003993356,103.959413407916,20.358
"2019-07","TAMPINES","519C TAMPINES CTRL 8","519C","TAMPINES CTRL 8","4 ROOM","13 TO 15","13","15",84,"DBSS",2014,"93 years 11 months",93,718000,1.35621338867608,103.939960455271,19.191
"2019-07","TOA PAYOH","222 LOR 8 TOA PAYOH","222","LOR 8 TOA PAYOH","4 ROOM","07 TO 09","07","09",82,"Improved",1976,"55 years 08 months",55,305000,1.34176590225727,103.856041153786,11.951
"2019-07","TOA PAYOH","208 TOA PAYOH NTH","208","TOA PAYOH NTH","4 ROOM","04 TO 06","04","06",81,"Improved",1973,"53 years 03 months",53,363000,1.34189361849197,103.845207805828,11.696
"2019-07","TOA PAYOH","204 TOA PAYOH NTH","204","TOA PAYOH NTH","4 ROOM","07 TO 09","07","09",87,"Improved",1973,"53 years",53,380000,1.34148414007449,103.849067723667,11.275
"2019-07","TOA PAYOH","18 JOO SENG RD","18","JOO SENG RD","4 ROOM","10 TO 12","10","12",106,"Model A",1984,"63 years 08 months",63,430000,1.33684922199185,103.881141512065,10.445
"2019-07","TOA PAYOH","244 KIM KEAT LINK","244","KIM KEAT LINK","4 ROOM","01 TO 03","01","03",104,"Model A",1989,"68 years 07 months",68,455000,1.33069367982742,103.85635902134,10.079
"2019-07","TOA PAYOH","193 LOR 4 TOA PAYOH","193","LOR 4 TOA PAYOH","4 ROOM","22 TO 24","22","24",84,"Improved",1974,"54 years 01 month",54,473000,1.33159005591995,103.851295104405,8.95
"2019-07","TOA PAYOH","43 LOR 5 TOA PAYOH","43","LOR 5 TOA PAYOH","4 ROOM","01 TO 03","01","03",109,"Model A",1993,"72 years 09 months",72,5e+05,1.33593875252104,103.854288176424,11.263
"2019-07","TOA PAYOH","79E TOA PAYOH CTRL","79E","TOA PAYOH CTRL","4 ROOM","07 TO 09","07","09",76,"Model A",2009,"88 years 09 months",88,623000,1.33472713626235,103.849822984337,8.539
"2019-07","TOA PAYOH","79E TOA PAYOH CTRL","79E","TOA PAYOH CTRL","4 ROOM","25 TO 27","25","27",76,"Model A",2009,"88 years 09 months",88,663888,1.33472713626235,103.849822984337,8.539
"2019-07","TOA PAYOH","152 LOR 2 TOA PAYOH","152","LOR 2 TOA PAYOH","4 ROOM","19 TO 21","19","21",91,"Model A",2006,"85 years 06 months",85,747000,1.33416708512554,103.845891140252,8.372
"2019-07","TOA PAYOH","79C TOA PAYOH CTRL","79C","TOA PAYOH CTRL","4 ROOM","19 TO 21","19","21",91,"Model A",2009,"88 years 09 months",88,765000,1.33466057880014,103.848577764995,11.029
"2019-07","TOA PAYOH","146 LOR 2 TOA PAYOH","146","LOR 2 TOA PAYOH","4 ROOM","28 TO 30","28","30",92,"Model A",2006,"85 years 06 months",85,768888,1.33466409464552,103.846451369821,8.439
"2019-07","TOA PAYOH","152 LOR 2 TOA PAYOH","152","LOR 2 TOA PAYOH","4 ROOM","37 TO 39","37","39",91,"Model A",2006,"85 years 06 months",85,780000,1.33416708512554,103.845891140252,8.372
"2019-07","TOA PAYOH","79B TOA PAYOH CTRL","79B","TOA PAYOH CTRL","4 ROOM","28 TO 30","28","30",91,"Model A",2009,"88 years 09 months",88,808000,1.33464078301907,103.847990266882,8.378
"2019-07","WOODLANDS","205 MARSILING DR","205","MARSILING DR","4 ROOM","04 TO 06","04","06",91,"New Generation",1980,"60 years 04 months",60,265000,1.4449461460443,103.773484126567,24.665
"2019-07","WOODLANDS","429 WOODLANDS ST 41","429","WOODLANDS ST 41","4 ROOM","01 TO 03","01","03",84,"Simplified",1996,"76 years 02 months",76,270000,1.42661684900233,103.772948569562,23.554
"2019-07","WOODLANDS","321 WOODLANDS ST 32","321","WOODLANDS ST 32","4 ROOM","04 TO 06","04","06",89,"Simplified",1994,"73 years 06 months",73,272000,1.43187058302869,103.779020810573,23.64
"2019-07","WOODLANDS","335 WOODLANDS ST 32","335","WOODLANDS ST 32","4 ROOM","01 TO 03","01","03",83,"Simplified",1985,"65 years 05 months",65,290000,1.42972520117129,103.780579357988,23.829
"2019-07","WOODLANDS","437 WOODLANDS ST 41","437","WOODLANDS ST 41","4 ROOM","04 TO 06","04","06",84,"Simplified",1996,"76 years 01 month",76,295000,1.42698226303345,103.774692737623,23.547
"2019-07","WOODLANDS","737 WOODLANDS CIRCLE","737","WOODLANDS CIRCLE","4 ROOM","04 TO 06","04","06",91,"Model A2",1998,"77 years 07 months",77,296500,1.4436783632097,103.796822911109,27.432
"2019-07","WOODLANDS","619 WOODLANDS DR 52","619","WOODLANDS DR 52","4 ROOM","04 TO 06","04","06",91,"Model A2",1998,"78 years 02 months",78,302000,1.43343677091965,103.79805544789,26.241
"2019-07","WOODLANDS","113 WOODLANDS ST 13","113","WOODLANDS ST 13","4 ROOM","07 TO 09","07","09",91,"New Generation",1987,"66 years 08 months",66,305000,1.43801404529215,103.78122891909,24.278
"2019-07","WOODLANDS","762 WOODLANDS AVE 6","762","WOODLANDS AVE 6","4 ROOM","04 TO 06","04","06",103,"Model A",1998,"77 years 07 months",77,308000,1.44602731663791,103.796071981368,27.631
"2019-07","WOODLANDS","774 WOODLANDS CRES","774","WOODLANDS CRES","4 ROOM","10 TO 12","10","12",91,"Model A2",1997,"77 years 03 months",77,310000,1.44814759810496,103.799142729823,27.406
"2019-07","WOODLANDS","707 WOODLANDS DR 40","707","WOODLANDS DR 40","4 ROOM","04 TO 06","04","06",100,"Model A",1996,"76 years 03 months",76,310000,1.44061701971721,103.79664662375,27.478
"2019-07","WOODLANDS","177 WOODLANDS ST 13","177","WOODLANDS ST 13","4 ROOM","04 TO 06","04","06",91,"New Generation",1986,"65 years 07 months",65,310000,1.43435791362603,103.778088434368,24.032
"2019-07","WOODLANDS","421 WOODLANDS ST 41","421","WOODLANDS ST 41","4 ROOM","01 TO 03","01","03",106,"Model A",1996,"75 years 07 months",75,312000,1.42777430170853,103.774621743717,23.523
"2019-07","WOODLANDS","769 WOODLANDS DR 60","769","WOODLANDS DR 60","4 ROOM","01 TO 03","01","03",103,"Model A",1997,"77 years 05 months",77,313000,1.44729070675124,103.798950715823,27.35
"2019-07","WOODLANDS","601 WOODLANDS DR 42","601","WOODLANDS DR 42","4 ROOM","01 TO 03","01","03",91,"Model A2",1997,"76 years 08 months",76,315000,1.43865031666959,103.796517232878,26.602
"2019-07","WOODLANDS","728 WOODLANDS CIRCLE","728","WOODLANDS CIRCLE","4 ROOM","10 TO 12","10","12",91,"Model A2",1997,"77 years 02 months",77,315000,1.44288020200672,103.798887777863,27.52
"2019-07","WOODLANDS","605 WOODLANDS DR 42","605","WOODLANDS DR 42","4 ROOM","01 TO 03","01","03",93,"Model A2",1997,"76 years 10 months",76,317000,1.43719230414699,103.797089753215,26.473
"2019-07","WOODLANDS","155 WOODLANDS ST 13","155","WOODLANDS ST 13","4 ROOM","04 TO 06","04","06",103,"Model A",1985,"64 years 08 months",64,318000,1.43473447528056,103.774586932224,23.313
"2019-07","WOODLANDS","427 WOODLANDS ST 41","427","WOODLANDS ST 41","4 ROOM","07 TO 09","07","09",100,"Model A",1997,"76 years 08 months",76,318000,1.42729507942919,103.772494639198,23.502
"2019-07","WOODLANDS","824 WOODLANDS ST 81","824","WOODLANDS ST 81","4 ROOM","04 TO 06","04","06",84,"Simplified",1989,"69 years 03 months",69,318000,1.4392326838762,103.788699950515,26.961
"2019-07","WOODLANDS","756 WOODLANDS AVE 4","756","WOODLANDS AVE 4","4 ROOM","07 TO 09","07","09",101,"Model A",1998,"77 years 07 months",77,320000,1.44572144964559,103.793193112326,27.637
"2019-07","WOODLANDS","336 WOODLANDS AVE 1","336","WOODLANDS AVE 1","4 ROOM","04 TO 06","04","06",103,"Model A",1985,"65 years 04 months",65,325000,1.43045950870745,103.782003060129,26.712
"2019-07","WOODLANDS","894A WOODLANDS DR 50","894A","WOODLANDS DR 50","4 ROOM","01 TO 03","01","03",100,"Model A",1996,"76 years 01 month",76,325000,1.43601133588258,103.7903668585,26.892
"2019-07","WOODLANDS","749 WOODLANDS CIRCLE","749","WOODLANDS CIRCLE","4 ROOM","04 TO 06","04","06",102,"Model A",1998,"77 years 08 months",77,325000,1.44451997381899,103.794445720357,27.685
"2019-07","WOODLANDS","622 WOODLANDS DR 52","622","WOODLANDS DR 52","4 ROOM","01 TO 03","01","03",102,"Model A",1998,"78 years 01 month",78,328000,1.43435618209184,103.798619620908,25.999
"2019-07","WOODLANDS","786F WOODLANDS DR 60","786F","WOODLANDS DR 60","4 ROOM","04 TO 06","04","06",100,"Model A",1997,"77 years",77,330000,1.44624972053447,103.800417990569,27.395
"2019-07","WOODLANDS","787E WOODLANDS CRES","787E","WOODLANDS CRES","4 ROOM","07 TO 09","07","09",102,"Model A",1997,"77 years 03 months",77,331000,1.44492134030396,103.80229706643,27.227
"2019-07","WOODLANDS","787E WOODLANDS CRES","787E","WOODLANDS CRES","4 ROOM","10 TO 12","10","12",100,"Model A",1997,"77 years 04 months",77,333000,1.44492134030396,103.80229706643,27.227
"2019-07","WOODLANDS","794 WOODLANDS DR 72","794","WOODLANDS DR 72","4 ROOM","10 TO 12","10","12",100,"Model A",1998,"77 years 06 months",77,335000,1.44257449085255,103.803594082133,27.161
"2019-07","WOODLANDS","682D WOODLANDS DR 73","682D","WOODLANDS DR 73","4 ROOM","04 TO 06","04","06",105,"Premium Apartment",2000,"79 years 08 months",79,338000,1.44096063753942,103.804726530731,26.528
"2019-07","WOODLANDS","786B WOODLANDS DR 60","786B","WOODLANDS DR 60","4 ROOM","04 TO 06","04","06",100,"Model A2",1997,"77 years 01 month",77,339000,1.44568798307172,103.800693953752,27.538
"2019-07","WOODLANDS","840 WOODLANDS ST 82","840","WOODLANDS ST 82","4 ROOM","10 TO 12","10","12",104,"Model A",1994,"73 years 11 months",73,339000,1.44381282098453,103.792401112407,27.55
"2019-07","WOODLANDS","772 WOODLANDS DR 60","772","WOODLANDS DR 60","4 ROOM","10 TO 12","10","12",100,"Model A",1997,"77 years 04 months",77,340000,1.44723371011331,103.798185250091,27.536
"2019-07","WOODLANDS","437 WOODLANDS ST 41","437","WOODLANDS ST 41","4 ROOM","10 TO 12","10","12",104,"Model A",1996,"76 years 01 month",76,345000,1.42698226303345,103.774692737623,23.547
"2019-07","WOODLANDS","640 WOODLANDS RING RD","640","WOODLANDS RING RD","4 ROOM","04 TO 06","04","06",102,"Model A",1999,"79 years 02 months",79,350000,1.43807796920962,103.802386575624,26.162
"2019-07","WOODLANDS","12A MARSILING LANE","12A","MARSILING LANE","4 ROOM","10 TO 12","10","12",93,"Model A",2013,"92 years 11 months",92,355000,1.44131726915198,103.778405129794,24.552
"2019-07","WOODLANDS","782B WOODLANDS CRES","782B","WOODLANDS CRES","4 ROOM","01 TO 03","01","03",92,"Model A",2015,"94 years 11 months",94,355000,1.44746980055218,103.803227069534,27.463
"2019-07","WOODLANDS","782D WOODLANDS CRES","782D","WOODLANDS CRES","4 ROOM","04 TO 06","04","06",92,"Model A",2015,"94 years 11 months",94,359000,1.44817395186338,103.803035444573,27.676
"2019-07","WOODLANDS","336 WOODLANDS AVE 1","336","WOODLANDS AVE 1","4 ROOM","10 TO 12","10","12",104,"Model A",1985,"65 years 04 months",65,360000,1.43045950870745,103.782003060129,26.712
"2019-07","WOODLANDS","588 WOODLANDS DR 16","588","WOODLANDS DR 16","4 ROOM","01 TO 03","01","03",91,"Model A",2001,"80 years 09 months",80,360000,1.42766679871283,103.794643990954,25.227
"2019-07","WOODLANDS","684A WOODLANDS DR 73","684A","WOODLANDS DR 73","4 ROOM","07 TO 09","07","09",105,"Premium Apartment",2000,"79 years 07 months",79,362000,1.4411312628412,103.805148060847,26.639
"2019-07","WOODLANDS","886B WOODLANDS DR 50","886B","WOODLANDS DR 50","4 ROOM","01 TO 03","01","03",92,"Premium Apartment",2015,"94 years 07 months",94,365000,1.43825809969323,103.794115487248,26.931
"2019-07","WOODLANDS","782E WOODLANDS CRES","782E","WOODLANDS CRES","4 ROOM","07 TO 09","07","09",92,"Model A",2015,"94 years 11 months",94,370000,1.44805153860282,103.802708834923,27.714
"2019-07","WOODLANDS","894B WOODLANDS DR 50","894B","WOODLANDS DR 50","4 ROOM","04 TO 06","04","06",100,"Model A",1996,"76 years 03 months",76,387000,1.4360094594713,103.789721786058,26.986
"2019-07","WOODLANDS","780D WOODLANDS CRES","780D","WOODLANDS CRES","4 ROOM","10 TO 12","10","12",92,"Model A",2015,"95 years 01 month",95,388000,1.44811995933796,103.801945845172,27.7
"2019-07","WOODLANDS","369 WOODLANDS AVE 1","369","WOODLANDS AVE 1","4 ROOM","04 TO 06","04","06",102,"Model A",1996,"76 years 05 months",76,388000,1.43343619748538,103.787422681373,26.399
"2019-07","WOODLANDS","782C WOODLANDS CRES","782C","WOODLANDS CRES","4 ROOM","13 TO 15","13","15",92,"Model A",2015,"94 years 11 months",94,390000,1.44768422279415,103.803460439858,27.512
"2019-07","WOODLANDS","516 WOODLANDS DR 14","516","WOODLANDS DR 14","4 ROOM","01 TO 03","01","03",107,"Premium Apartment",1999,"78 years 08 months",78,390000,1.43469554286276,103.791048679069,26.235
"2019-07","WOODLANDS","886A WOODLANDS DR 50","886A","WOODLANDS DR 50","4 ROOM","01 TO 03","01","03",92,"Premium Apartment",2015,"94 years 08 months",94,392500,1.43829151566128,103.794612853493,27.107
"2019-07","WOODLANDS","782D WOODLANDS CRES","782D","WOODLANDS CRES","4 ROOM","13 TO 15","13","15",92,"Model A",2015,"94 years 11 months",94,4e+05,1.44817395186338,103.803035444573,27.676
"2019-07","WOODLANDS","364 WOODLANDS AVE 5","364","WOODLANDS AVE 5","4 ROOM","04 TO 06","04","06",105,"Model A",1996,"75 years 11 months",75,408000,1.43407882459804,103.786743448762,26.446
"2019-07","WOODLANDS","12B MARSILING LANE","12B","MARSILING LANE","4 ROOM","19 TO 21","19","21",93,"Model A",2013,"92 years 11 months",92,410000,1.44108596725738,103.778120234676,24.306
"2019-07","WOODLANDS","887A WOODLANDS DR 50","887A","WOODLANDS DR 50","4 ROOM","07 TO 09","07","09",92,"Premium Apartment",2015,"94 years 07 months",94,415000,1.43719216541067,103.793890876939,26.872
"2019-07","YISHUN","260 YISHUN ST 22","260","YISHUN ST 22","4 ROOM","10 TO 12","10","12",84,"Simplified",1985,"65 years 01 month",65,265000,1.43547754128002,103.839276532996,22.326
"2019-07","YISHUN","167 YISHUN RING RD","167","YISHUN RING RD","4 ROOM","04 TO 06","04","06",84,"Simplified",1987,"67 years 06 months",67,275888,1.43661282967317,103.832356503845,23.448
"2019-07","YISHUN","603 YISHUN ST 61","603","YISHUN ST 61","4 ROOM","04 TO 06","04","06",83,"Simplified",1987,"66 years 07 months",66,295000,1.42205684515085,103.835660125996,21.967
"2019-07","YISHUN","437 YISHUN AVE 6","437","YISHUN AVE 6","4 ROOM","07 TO 09","07","09",104,"Model A",1988,"68 years 02 months",68,303000,1.42168752611672,103.84756072452,21.272
"2019-07","YISHUN","111 YISHUN RING RD","111","YISHUN RING RD","4 ROOM","07 TO 09","07","09",94,"New Generation",1982,"61 years 11 months",61,305000,1.43321263970177,103.828617498413,23.825
"2019-07","YISHUN","727 YISHUN ST 71","727","YISHUN ST 71","4 ROOM","01 TO 03","01","03",84,"Simplified",1985,"65 years 04 months",65,305000,1.42621011729954,103.831240144634,22.568
"2019-07","YISHUN","766 YISHUN AVE 3","766","YISHUN AVE 3","4 ROOM","10 TO 12","10","12",84,"Simplified",1985,"65 years 01 month",65,310000,1.42470239952978,103.833949786818,21.997
"2019-07","YISHUN","126 YISHUN ST 11","126","YISHUN ST 11","4 ROOM","07 TO 09","07","09",95,"New Generation",1984,"64 years 02 months",64,313000,1.43350905989816,103.830011887888,23.641
"2019-07","YISHUN","108 YISHUN RING RD","108","YISHUN RING RD","4 ROOM","07 TO 09","07","09",91,"New Generation",1985,"64 years 06 months",64,315000,1.43232355080911,103.829071971177,23.314
"2019-07","YISHUN","766 YISHUN AVE 3","766","YISHUN AVE 3","4 ROOM","07 TO 09","07","09",84,"Simplified",1985,"65 years 01 month",65,320888,1.42470239952978,103.833949786818,21.997
"2019-07","YISHUN","350 YISHUN AVE 11","350","YISHUN AVE 11","4 ROOM","04 TO 06","04","06",104,"Model A",1988,"68 years 01 month",68,325000,1.42547985096679,103.84427895925,22.995
"2019-07","YISHUN","416 YISHUN AVE 11","416","YISHUN AVE 11","4 ROOM","01 TO 03","01","03",104,"Model A",1993,"72 years 07 months",72,326000,1.42373289076121,103.846082250956,21.327
"2019-07","YISHUN","443 YISHUN AVE 11","443","YISHUN AVE 11","4 ROOM","04 TO 06","04","06",92,"Model A",2012,"92 years 08 months",92,355000,1.42381002085379,103.844973012516,21.314
"2019-07","YISHUN","653 YISHUN AVE 4","653","YISHUN AVE 4","4 ROOM","10 TO 12","10","12",104,"Model A",1987,"66 years 06 months",66,360000,1.42307981422748,103.839666794518,22.438
"2019-07","YISHUN","864 YISHUN AVE 4","864","YISHUN AVE 4","4 ROOM","10 TO 12","10","12",104,"Model A",1988,"67 years 11 months",67,369000,1.41667257801916,103.839242300389,21.783
"2019-07","YISHUN","426D YISHUN AVE 11","426D","YISHUN AVE 11","4 ROOM","10 TO 12","10","12",92,"Model A",2015,"94 years 09 months",94,380000,1.42312201562129,103.84749822076,21.088
"2019-07","YISHUN","334D YISHUN ST 31","334D","YISHUN ST 31","4 ROOM","01 TO 03","01","03",92,"Model A",2015,"95 years 04 months",95,390000,1.43241464963844,103.846517127438,21.113
"2019-07","YISHUN","431D YISHUN AVE 1","431D","YISHUN AVE 1","4 ROOM","10 TO 12","10","12",92,"Model A",2015,"95 years 03 months",95,405000,1.4199690584837,103.846969476811,21.09
"2019-07","YISHUN","334D YISHUN ST 31","334D","YISHUN ST 31","4 ROOM","10 TO 12","10","12",92,"Model A",2015,"95 years 04 months",95,408888,1.43241464963844,103.846517127438,21.113
"2019-07","YISHUN","315A YISHUN AVE 9","315A","YISHUN AVE 9","4 ROOM","13 TO 15","13","15",92,"Model A",2015,"95 years 03 months",95,412000,1.43238385408312,103.842384119393,23.369
"2019-07","YISHUN","315B YISHUN AVE 9","315B","YISHUN AVE 9","4 ROOM","13 TO 15","13","15",92,"Model A",2015,"95 years 04 months",95,415000,1.43193085614681,103.842565042895,23.406
"2019-07","YISHUN","317C YISHUN AVE 9","317C","YISHUN AVE 9","4 ROOM","13 TO 15","13","15",92,"Model A",2015,"95 years 03 months",95,420000,1.43378048287839,103.843105705893,21.848
"2019-07","YISHUN","318C YISHUN AVE 9","318C","YISHUN AVE 9","4 ROOM","07 TO 09","07","09",92,"Model A",2015,"95 years 03 months",95,423000,1.43338279018701,103.843517908933,21.883
"2019-07","YISHUN","318C YISHUN AVE 9","318C","YISHUN AVE 9","4 ROOM","13 TO 15","13","15",92,"Model A",2015,"95 years 03 months",95,455000,1.43338279018701,103.843517908933,21.883
"2019-08","SENGKANG","227C COMPASSVALE DR","227C","COMPASSVALE DR","4 ROOM","10 TO 12","10","12",102,"Model A",2000,"79 years 05 months",79,430000,1.38680229828816,103.901132950862,15.929
"2019-08","SENGKANG","452B SENGKANG WEST WAY","452B","SENGKANG WEST WAY","4 ROOM","13 TO 15","13","15",92,"Model A",2015,"94 years 09 months",94,430000,1.39359219975011,103.873975642578,16.981
"2019-08","SENGKANG","209A COMPASSVALE LANE","209A","COMPASSVALE LANE","4 ROOM","10 TO 12","10","12",92,"Model A",2011,"91 years 03 months",91,438000,1.38359765453194,103.898502660861,16.247
"2019-08","SENGKANG","440B FERNVALE LINK","440B","FERNVALE LINK","4 ROOM","13 TO 15","13","15",92,"Model A",2015,"95 years 01 month",95,445000,1.39329062882167,103.878138964178,17.477
"2019-08","SENGKANG","453D FERNVALE RD","453D","FERNVALE RD","4 ROOM","22 TO 24","22","24",92,"Model A",2015,"94 years 11 months",94,448000,1.39341707295426,103.875340178233,17.217
"2019-10","BUKIT PANJANG","635A SENJA RD","635A","SENJA RD","4 ROOM","31 TO 33","31","33",92,"Model A",2015,"95 years 01 month",95,488000,1.38656225824527,103.757208072494,18.962
"2019-10","BUKIT PANJANG","621 SENJA RD","621","SENJA RD","4 ROOM","13 TO 15","13","15",90,"Model A",2001,"81 years 02 months",81,375000,1.38602106063185,103.762854282454,18.967
"2019-10","BUKIT PANJANG","634A SENJA RD","634A","SENJA RD","4 ROOM","16 TO 18","16","18",93,"Model A",2015,"95 years",95,450000,1.38579809218637,103.757614659363,18.841
"2019-10","BUKIT TIMAH","3 QUEEN'S RD","3","QUEEN'S RD","4 ROOM","07 TO 09","07","09",91,"Improved",1974,"53 years 06 months",53,530000,1.31833337221312,103.808097181789,9.314
"2019-10","CENTRAL AREA","641 ROWELL RD","641","ROWELL RD","4 ROOM","16 TO 18","16","18",101,"Model A",1983,"63 years",63,550000,1.30815916680636,103.855147802763,3.888
"2019-10","CENTRAL AREA","335B SMITH ST","335B","SMITH ST","4 ROOM","22 TO 24","22","24",82,"Improved",1984,"63 years 05 months",63,665000,1.28236449613222,103.843448181669,1.944
"2019-10","CHOA CHU KANG","289 CHOA CHU KANG AVE 3","289","CHOA CHU KANG AVE 3","4 ROOM","01 TO 03","01","03",104,"Model A",1993,"72 years 08 months",72,325000,1.37927183528093,103.74066488084,22.954
"2019-10","CHOA CHU KANG","435 CHOA CHU KANG AVE 4","435","CHOA CHU KANG AVE 4","4 ROOM","01 TO 03","01","03",104,"Model A",1993,"72 years 08 months",72,325000,1.38513876368188,103.741050016887,22.974
"2019-10","CHOA CHU KANG","476D CHOA CHU KANG AVE 5","476D","CHOA CHU KANG AVE 5","4 ROOM","10 TO 12","10","12",92,"Model A",2013,"92 years 09 months",92,405000,1.37727907968964,103.738418034791,22.827
"2019-10","CHOA CHU KANG","476B CHOA CHU KANG AVE 5","476B","CHOA CHU KANG AVE 5","4 ROOM","04 TO 06","04","06",92,"Model A",2013,"92 years 09 months",92,365000,1.37711823495119,103.737558566927,22.755
"2019-10","CHOA CHU KANG","684B CHOA CHU KANG CRES","684B","CHOA CHU KANG CRES","4 ROOM","04 TO 06","04","06",90,"Model A",2002,"82 years",82,358000,1.40389957807762,103.747236264641,23.698
"2019-10","CHOA CHU KANG","683B CHOA CHU KANG CRES","683B","CHOA CHU KANG CRES","4 ROOM","10 TO 12","10","12",90,"Model A",2002,"81 years 10 months",81,320000,1.40376671076444,103.746257887648,23.567
"2019-10","CHOA CHU KANG","228 CHOA CHU KANG CTRL","228","CHOA CHU KANG CTRL","4 ROOM","01 TO 03","01","03",104,"Model A",1989,"68 years 07 months",68,315000,1.3809461575335,103.746498914115,20.164
"2019-10","CHOA CHU KANG","620 CHOA CHU KANG ST 62","620","CHOA CHU KANG ST 62","4 ROOM","04 TO 06","04","06",108,"Model A",1996,"75 years 09 months",75,375000,1.3998050633755,103.747145323815,23.149
"2019-10","CHOA CHU KANG","6 TECK WHYE AVE","6","TECK WHYE AVE","4 ROOM","10 TO 12","10","12",104,"Model A",1984,"63 years 05 months",63,338000,1.38158682382234,103.753828252297,19.197
"2019-10","CLEMENTI","301 CLEMENTI AVE 4","301","CLEMENTI AVE 4","4 ROOM","13 TO 15","13","15",92,"New Generation",1979,"58 years 05 months",58,425000,1.32217649495476,103.764912144396,13.877
"2019-10","CLEMENTI","309 CLEMENTI AVE 4","309","CLEMENTI AVE 4","4 ROOM","10 TO 12","10","12",92,"New Generation",1980,"59 years 03 months",59,438000,1.32091981411778,103.766377598785,13.783
"2019-10","GEYLANG","105 ALJUNIED CRES","105","ALJUNIED CRES","4 ROOM","04 TO 06","04","06",99,"New Generation",1979,"58 years 03 months",58,490000,1.31946862097465,103.882751492944,6.556
"2019-10","GEYLANG","56 CASSIA CRES","56","CASSIA CRES","4 ROOM","07 TO 09","07","09",102,"Model A",1998,"77 years 04 months",77,670000,1.31022063491151,103.88323543756,5.504
"2019-10","GEYLANG","5 HAIG RD","5","HAIG RD","4 ROOM","07 TO 09","07","09",92,"New Generation",1976,"55 years 09 months",55,441000,1.31258917369124,103.896591193187,7.263
"2019-10","GEYLANG","9 PINE CL","9","PINE CL","4 ROOM","01 TO 03","01","03",102,"Model A",1997,"77 years 01 month",77,6e+05,1.30946949657983,103.882437524567,5.522
"2019-10","GEYLANG","336 UBI AVE 1","336","UBI AVE 1","4 ROOM","07 TO 09","07","09",83,"Simplified",1986,"65 years 05 months",65,330000,1.32572020348011,103.901822392584,9.702
"2019-10","GEYLANG","349 UBI AVE 1","349","UBI AVE 1","4 ROOM","04 TO 06","04","06",104,"Model A",1986,"65 years 03 months",65,4e+05,1.32582834326478,103.900581103781,9.492
"2019-10","GEYLANG","345 UBI AVE 1","345","UBI AVE 1","4 ROOM","01 TO 03","01","03",84,"Simplified",1985,"65 years",65,340000,1.32591743884326,103.899063689115,9.703
"2019-10","HOUGANG","988C BUANGKOK GREEN","988C","BUANGKOK GREEN","4 ROOM","04 TO 06","04","06",93,"Model A",2015,"94 years 04 months",94,430000,1.38029686296144,103.877266407149,16.088
"2019-10","HOUGANG","113 HOUGANG AVE 1","113","HOUGANG AVE 1","4 ROOM","01 TO 03","01","03",95,"New Generation",1982,"61 years 03 months",61,333000,1.35356905255693,103.888705665044,11.675
"2019-10","HOUGANG","515 HOUGANG AVE 10","515","HOUGANG AVE 10","4 ROOM","04 TO 06","04","06",84,"Simplified",1986,"66 years",66,337000,1.37239536533304,103.889038095817,15.849
"2019-10","HOUGANG","704 HOUGANG AVE 2","704","HOUGANG AVE 2","4 ROOM","01 TO 03","01","03",96,"New Generation",1985,"65 years 01 month",65,315000,1.3649231962434,103.889379532965,13.521
"2019-10","HOUGANG","608 HOUGANG AVE 4","608","HOUGANG AVE 4","4 ROOM","01 TO 03","01","03",84,"Simplified",1985,"64 years 11 months",64,318000,1.37084420462336,103.885431882212,15.618
"2019-10","HOUGANG","607 HOUGANG AVE 4","607","HOUGANG AVE 4","4 ROOM","01 TO 03","01","03",90,"Simplified",1986,"65 years 09 months",65,330000,1.3702520267426,103.886157677641,15.555
"2019-10","HOUGANG","319 HOUGANG AVE 5","319","HOUGANG AVE 5","4 ROOM","10 TO 12","10","12",93,"New Generation",1983,"62 years 09 months",62,342000,1.36572843966135,103.896620216828,13.056
"2019-10","HOUGANG","521 HOUGANG AVE 6","521","HOUGANG AVE 6","4 ROOM","01 TO 03","01","03",84,"Simplified",1987,"66 years 11 months",66,325000,1.37340363494693,103.890971498594,15.959
"2019-10","HOUGANG","317 HOUGANG AVE 7","317","HOUGANG AVE 7","4 ROOM","10 TO 12","10","12",93,"New Generation",1983,"62 years 09 months",62,360000,1.36529966178088,103.896454800013,12.804
"2019-10","HOUGANG","636 HOUGANG AVE 8","636","HOUGANG AVE 8","4 ROOM","10 TO 12","10","12",84,"Simplified",1987,"67 years 02 months",67,330000,1.37061271157512,103.879209065676,15.301
"2019-10","HOUGANG","669 HOUGANG AVE 8","669","HOUGANG AVE 8","4 ROOM","07 TO 09","07","09",104,"Model A",1987,"67 years 01 month",67,370000,1.37337022502161,103.884099363082,15.196
"2019-10","HOUGANG","444 HOUGANG AVE 8","444","HOUGANG AVE 8","4 ROOM","07 TO 09","07","09",103,"Model A",1991,"70 years 11 months",70,418000,1.37948290397073,103.893847652197,17.246
"2019-10","HOUGANG","444 HOUGANG AVE 8","444","HOUGANG AVE 8","4 ROOM","07 TO 09","07","09",113,"Model A",1991,"70 years 11 months",70,440000,1.37948290397073,103.893847652197,17.246
"2019-10","HOUGANG","630 HOUGANG AVE 8","630","HOUGANG AVE 8","4 ROOM","04 TO 06","04","06",84,"Simplified",1986,"66 years 02 months",66,320000,1.37028550123907,103.881064208977,14.826
"2019-10","HOUGANG","242 HOUGANG ST 22","242","HOUGANG ST 22","4 ROOM","07 TO 09","07","09",91,"New Generation",1984,"64 years",64,335800,1.35738897663765,103.892167860466,12.02
"2019-10","HOUGANG","552 HOUGANG ST 51","552","HOUGANG ST 51","4 ROOM","04 TO 06","04","06",104,"Model A",1990,"69 years 03 months",69,370000,1.3788033441094,103.890373625219,16.73
"2019-10","HOUGANG","570 HOUGANG ST 51","570","HOUGANG ST 51","4 ROOM","01 TO 03","01","03",100,"Model A",1997,"76 years 07 months",76,360000,1.3779717648119,103.888099465444,16.746
"2019-10","HOUGANG","553 HOUGANG ST 51","553","HOUGANG ST 51","4 ROOM","07 TO 09","07","09",104,"Model A",1989,"68 years 11 months",68,345000,1.37912886060976,103.890377946027,16.728
"2019-10","HOUGANG","534 HOUGANG ST 52","534","HOUGANG ST 52","4 ROOM","07 TO 09","07","09",104,"Model A",1992,"72 years",72,380000,1.37715488778059,103.890479183532,16.116
"2019-10","HOUGANG","697 HOUGANG ST 61","697","HOUGANG ST 61","4 ROOM","04 TO 06","04","06",84,"Simplified",1987,"66 years 08 months",66,335000,1.37554033809538,103.887475138873,15.775
"2019-10","HOUGANG","697 HOUGANG ST 61","697","HOUGANG ST 61","4 ROOM","01 TO 03","01","03",89,"Simplified",1987,"66 years 07 months",66,343000,1.37554033809538,103.887475138873,15.775
"2019-10","HOUGANG","922 HOUGANG ST 91","922","HOUGANG ST 91","4 ROOM","13 TO 15","13","15",100,"Model A",1998,"77 years 04 months",77,395000,1.37637123592055,103.883519603693,16.013
"2019-10","HOUGANG","142 LOR AH SOO","142","LOR AH SOO","4 ROOM","10 TO 12","10","12",108,"Model A",1984,"64 years 02 months",64,413888,1.35302664004115,103.882887594334,12.181
"2019-10","HOUGANG","471B UPP SERANGOON CRES","471B","UPP SERANGOON CRES","4 ROOM","10 TO 12","10","12",92,"Model A",2015,"94 years 07 months",94,462000,1.37801001262766,103.901070789874,15.316
"2019-10","HOUGANG","470B UPP SERANGOON CRES","470B","UPP SERANGOON CRES","4 ROOM","13 TO 15","13","15",92,"Model A",2015,"94 years 08 months",94,470000,1.37893083811935,103.900988286293,15.589
"2019-10","HOUGANG","470A UPP SERANGOON CRES","470A","UPP SERANGOON CRES","4 ROOM","10 TO 12","10","12",92,"Model A",2015,"94 years 07 months",94,450000,1.37905480016802,103.901927831856,15.488
"2019-10","HOUGANG","471A UPP SERANGOON CRES","471A","UPP SERANGOON CRES","4 ROOM","13 TO 15","13","15",92,"Model A",2015,"94 years 07 months",94,485000,1.37814544014756,103.901767342056,15.336
"2019-10","HOUGANG","470A UPP SERANGOON CRES","470A","UPP SERANGOON CRES","4 ROOM","10 TO 12","10","12",92,"Model A",2015,"94 years 07 months",94,460000,1.37905480016802,103.901927831856,15.488
"2019-10","HOUGANG","476B UPP SERANGOON VIEW","476B","UPP SERANGOON VIEW","4 ROOM","13 TO 15","13","15",92,"Premium Apartment",2016,"95 years 05 months",95,463888,1.37732845210704,103.904212191193,15.301
"2019-10","JURONG EAST","332 JURONG EAST AVE 1","332","JURONG EAST AVE 1","4 ROOM","04 TO 06","04","06",106,"Model A",1985,"65 years 01 month",65,350000,1.35159123927227,103.73019605105,18.893
"2019-10","JURONG EAST","105 JURONG EAST ST 13","105","JURONG EAST ST 13","4 ROOM","01 TO 03","01","03",91,"New Generation",1993,"72 years 09 months",72,443000,1.33738746819329,103.738527627347,16.943
"2019-10","JURONG EAST","258 JURONG EAST ST 24","258","JURONG EAST ST 24","4 ROOM","10 TO 12","10","12",98,"New Generation",1983,"62 years 04 months",62,360000,1.34378634902456,103.738635757888,18.172
"2019-10","JURONG EAST","320 JURONG EAST ST 31","320","JURONG EAST ST 31","4 ROOM","04 TO 06","04","06",105,"Model A",1984,"64 years 02 months",64,390000,1.34875786021291,103.730708675043,18.471
"2019-10","JURONG EAST","320 JURONG EAST ST 31","320","JURONG EAST ST 31","4 ROOM","13 TO 15","13","15",105,"Model A",1984,"64 years 02 months",64,440000,1.34875786021291,103.730708675043,18.471
"2019-10","JURONG EAST","409 PANDAN GDNS","409","PANDAN GDNS","4 ROOM","10 TO 12","10","12",97,"New Generation",1978,"58 years 01 month",58,322000,1.31851207644417,103.747372481331,15.963
"2019-10","JURONG EAST","20 TEBAN GDNS RD","20","TEBAN GDNS RD","4 ROOM","13 TO 15","13","15",92,"Model A",2013,"92 years 11 months",92,441000,1.32378355041705,103.7385183842,16.889
"2019-10","JURONG WEST","183A BOON LAY AVE","183A","BOON LAY AVE","4 ROOM","04 TO 06","04","06",92,"Model A",2015,"94 years 03 months",94,378500,1.34861716958628,103.709733571074,21.048
"2019-10","JURONG WEST","183C BOON LAY AVE","183C","BOON LAY AVE","4 ROOM","07 TO 09","07","09",92,"Model A",2015,"94 years 03 months",94,410000,1.34865235705733,103.709098000538,21.192
"2019-10","JURONG WEST","183D BOON LAY AVE","183D","BOON LAY AVE","4 ROOM","01 TO 03","01","03",92,"Model A",2015,"94 years 03 months",94,370000,1.34909073283024,103.709042656994,21.248
"2020-01","BUKIT PANJANG","435 BT PANJANG RING RD","435","BT PANJANG RING RD","4 ROOM","07 TO 09","07","09",84,"Simplified",1988,"67 years 11 months",67,3e+05,1.38603975530039,103.770196329443,18.268
"2020-01","BUKIT PANJANG","447 BT PANJANG RING RD","447","BT PANJANG RING RD","4 ROOM","07 TO 09","07","09",101,"Model A",1997,"76 years 05 months",76,340000,1.38318021667687,103.771603761569,18.283
"2020-01","BUKIT PANJANG","166 GANGSA RD","166","GANGSA RD","4 ROOM","04 TO 06","04","06",100,"Model A",1998,"77 years 04 months",77,455888,1.37748344975701,103.765391081305,17.828
"2020-01","BUKIT PANJANG","504 JELAPANG RD","504","JELAPANG RD","4 ROOM","07 TO 09","07","09",103,"Model A",1998,"77 years",77,340000,1.3847322385941,103.766932853057,18.846
"2020-01","BUKIT PANJANG","501 JELAPANG RD","501","JELAPANG RD","4 ROOM","16 TO 18","16","18",103,"Model A",1998,"77 years 03 months",77,383000,1.38288227586953,103.766847124866,18.921
"2020-01","BUKIT PANJANG","538 JELAPANG RD","538","JELAPANG RD","4 ROOM","07 TO 09","07","09",100,"Model A",1999,"78 years 04 months",78,390000,1.38387053713683,103.763690774195,18.733
"2020-01","BUKIT PANJANG","136 PETIR RD","136","PETIR RD","4 ROOM","01 TO 03","01","03",104,"Model A",1988,"67 years 09 months",67,310000,1.37461056095475,103.768753597677,18.186
"2020-01","BUKIT PANJANG","217 PETIR RD","217","PETIR RD","4 ROOM","07 TO 09","07","09",84,"Simplified",1987,"66 years 05 months",66,296000,1.37490882252027,103.773547827473,16.535
"2020-01","BUKIT PANJANG","205 PETIR RD","205","PETIR RD","4 ROOM","10 TO 12","10","12",103,"Model A",1988,"67 years 11 months",67,375000,1.37343025396585,103.773924079454,16.367
"2020-01","BUKIT PANJANG","168 PETIR RD","168","PETIR RD","4 ROOM","01 TO 03","01","03",102,"Model A",1998,"77 years 07 months",77,475000,1.37758285592609,103.764402344565,18.247
"2020-01","BUKIT PANJANG","459 SEGAR RD","459","SEGAR RD","4 ROOM","13 TO 15","13","15",93,"Premium Apartment",2015,"94 years 08 months",94,410000,1.38761161193831,103.771717424957,18.225
"2020-01","BUKIT PANJANG","486 SEGAR RD","486","SEGAR RD","4 ROOM","04 TO 06","04","06",92,"Model A",2014,"94 years",94,375000,1.38924060817621,103.77162077126,18.29
"2020-01","BUKIT PANJANG","460 SEGAR RD","460","SEGAR RD","4 ROOM","10 TO 12","10","12",93,"Premium Apartment",2015,"94 years 07 months",94,440000,1.38725146572543,103.772083507035,18.218
"2020-01","BUKIT PANJANG","465 SEGAR RD","465","SEGAR RD","4 ROOM","04 TO 06","04","06",90,"Premium Apartment",2002,"81 years 06 months",81,330000,1.38722762877204,103.772790109806,17.987
"2020-01","BUKIT PANJANG","459 SEGAR RD","459","SEGAR RD","4 ROOM","10 TO 12","10","12",93,"Premium Apartment",2015,"94 years 07 months",94,428000,1.38761161193831,103.771717424957,18.225
"2020-01","BUKIT PANJANG","455 SEGAR RD","455","SEGAR RD","4 ROOM","10 TO 12","10","12",93,"Premium Apartment",2012,"91 years 10 months",91,410000,1.38729105122449,103.770822142944,18.054
"2020-01","BUKIT PANJANG","471 SEGAR RD","471","SEGAR RD","4 ROOM","04 TO 06","04","06",90,"Premium Apartment",2002,"81 years 03 months",81,323000,1.3882916461168,103.772894835446,18.115
"2020-01","BUKIT PANJANG","461 SEGAR RD","461","SEGAR RD","4 ROOM","07 TO 09","07","09",93,"Premium Apartment",2015,"94 years 07 months",94,420000,1.3869743448416,103.771280059955,18.111
"2020-01","BUKIT PANJANG","461 SEGAR RD","461","SEGAR RD","4 ROOM","13 TO 15","13","15",93,"Premium Apartment",2015,"94 years 07 months",94,445800,1.3869743448416,103.771280059955,18.111
"2020-01","BUKIT PANJANG","481 SEGAR RD","481","SEGAR RD","4 ROOM","07 TO 09","07","09",92,"Premium Apartment",2002,"81 years 08 months",81,345000,1.38945648052361,103.772225899084,18.293
"2020-01","BUKIT PANJANG","635B SENJA RD","635B","SENJA RD","4 ROOM","19 TO 21","19","21",93,"Model A",2015,"94 years 10 months",94,480000,1.38660275237577,103.757710467868,18.958
"2020-01","BUKIT PANJANG","605 SENJA RD","605","SENJA RD","4 ROOM","22 TO 24","22","24",99,"Model A",1999,"78 years 04 months",78,515000,1.38080486799859,103.761856783214,18.283
"2020-01","BUKIT PANJANG","636B SENJA RD","636B","SENJA RD","4 ROOM","22 TO 24","22","24",92,"Model A",2015,"94 years 10 months",94,475000,1.38762470759976,103.758331445094,18.992
"2020-01","BUKIT PANJANG","636B SENJA RD","636B","SENJA RD","4 ROOM","13 TO 15","13","15",92,"Model A",2015,"94 years 10 months",94,485000,1.38762470759976,103.758331445094,18.992
"2020-01","BUKIT PANJANG","636B SENJA RD","636B","SENJA RD","4 ROOM","22 TO 24","22","24",92,"Model A",2015,"94 years 10 months",94,486488,1.38762470759976,103.758331445094,18.992
"2020-01","BUKIT PANJANG","605 SENJA RD","605","SENJA RD","4 ROOM","04 TO 06","04","06",99,"Model A",1999,"78 years 04 months",78,490000,1.38080486799859,103.761856783214,18.283
"2020-01","BUKIT TIMAH","9 TOH YI DR","9","TOH YI DR","4 ROOM","10 TO 12","10","12",104,"Model A",1989,"68 years 03 months",68,618000,1.33830479751081,103.773541593643,15.311
"2020-01","CHOA CHU KANG","294 CHOA CHU KANG AVE 2","294","CHOA CHU KANG AVE 2","4 ROOM","01 TO 03","01","03",104,"Model A",1990,"69 years 05 months",69,305000,1.37860430951383,103.74096177665,22.886
"2020-01","CHOA CHU KANG","294 CHOA CHU KANG AVE 2","294","CHOA CHU KANG AVE 2","4 ROOM","13 TO 15","13","15",103,"Model A",1990,"69 years 05 months",69,352888,1.37860430951383,103.74096177665,22.886
"2020-01","CHOA CHU KANG","294 CHOA CHU KANG AVE 2","294","CHOA CHU KANG AVE 2","4 ROOM","04 TO 06","04","06",103,"Model A",1990,"69 years 04 months",69,340000,1.37860430951383,103.74096177665,22.886
"2020-01","CHOA CHU KANG","405 CHOA CHU KANG AVE 3","405","CHOA CHU KANG AVE 3","4 ROOM","10 TO 12","10","12",104,"Model A",1993,"72 years 06 months",72,345000,1.38021754622899,103.739453325086,23.127
"2020-01","CHOA CHU KANG","286 CHOA CHU KANG AVE 3","286","CHOA CHU KANG AVE 3","4 ROOM","10 TO 12","10","12",106,"Model A",1993,"72 years 05 months",72,365000,1.37961096389848,103.741537948984,20.693
"2020-01","CHOA CHU KANG","423 CHOA CHU KANG AVE 4","423","CHOA CHU KANG AVE 4","4 ROOM","01 TO 03","01","03",104,"Model A",1992,"71 years 07 months",71,310000,1.3820241469387,103.740310723833,23.09
"2020-01","CHOA CHU KANG","455 CHOA CHU KANG AVE 4","455","CHOA CHU KANG AVE 4","4 ROOM","16 TO 18","16","18",103,"Premium Apartment",2000,"79 years 04 months",79,325000,1.37942324084484,103.735183712105,23.66
"2020-01","CHOA CHU KANG","476A CHOA CHU KANG AVE 5","476A","CHOA CHU KANG AVE 5","4 ROOM","16 TO 18","16","18",92,"Model A",2013,"92 years 06 months",92,390000,1.37652018482202,103.738025725932,22.706
"2020-01","CHOA CHU KANG","484D CHOA CHU KANG AVE 5","484D","CHOA CHU KANG AVE 5","4 ROOM","07 TO 09","07","09",101,"Model A",1999,"78 years 03 months",78,340000,1.37534797754277,103.737317097286,23.031
"2020-01","CHOA CHU KANG","691A CHOA CHU KANG CRES","691A","CHOA CHU KANG CRES","4 ROOM","22 TO 24","22","24",90,"Model A",2003,"82 years 05 months",82,326000,1.40115779753494,103.751471709468,23.289
"2020-01","CHOA CHU KANG","670A CHOA CHU KANG CRES","670A","CHOA CHU KANG CRES","4 ROOM","07 TO 09","07","09",103,"Premium Apartment",1999,"78 years 11 months",78,350000,1.4026789634991,103.747562464245,23.436
"2020-01","CHOA CHU KANG","685C CHOA CHU KANG CRES","685C","CHOA CHU KANG CRES","4 ROOM","07 TO 09","07","09",85,"Model A2",2002,"81 years 09 months",81,317000,1.40349428170579,103.748677231954,23.334
"2020-01","CHOA CHU KANG","685C CHOA CHU KANG CRES","685C","CHOA CHU KANG CRES","4 ROOM","01 TO 03","01","03",86,"Model A2",2002,"81 years 09 months",81,3e+05,1.40349428170579,103.748677231954,23.334
"2020-01","CHOA CHU KANG","673 CHOA CHU KANG CRES","673","CHOA CHU KANG CRES","4 ROOM","01 TO 03","01","03",103,"Premium Apartment",1999,"78 years 09 months",78,325000,1.40132802512812,103.748136094413,23.578
"2020-01","CHOA CHU KANG","205 CHOA CHU KANG CTRL","205","CHOA CHU KANG CTRL","4 ROOM","07 TO 09","07","09",104,"Model A",1989,"68 years 04 months",68,323000,1.38092680230382,103.748559601544,19.826
"2020-01","CHOA CHU KANG","211 CHOA CHU KANG CTRL","211","CHOA CHU KANG CTRL","4 ROOM","04 TO 06","04","06",114,"Model A",1989,"68 years 11 months",68,370000,1.38192104456083,103.747901184928,20.136
"2020-01","CHOA CHU KANG","230 CHOA CHU KANG CTRL","230","CHOA CHU KANG CTRL","4 ROOM","07 TO 09","07","09",111,"Model A",1990,"69 years 05 months",69,340000,1.3804123119769,103.746190534804,20.326
"2020-01","CHOA CHU KANG","573 CHOA CHU KANG ST 52","573","CHOA CHU KANG ST 52","4 ROOM","10 TO 12","10","12",92,"Model A",2015,"94 years 01 month",94,440000,1.39441682553354,103.745432631111,22.628
"2020-01","CHOA CHU KANG","704 CHOA CHU KANG ST 53","704","CHOA CHU KANG ST 53","4 ROOM","10 TO 12","10","12",109,"Model A",1995,"74 years 05 months",74,350000,1.390443298753,103.745743952477,22.417
"2020-01","CHOA CHU KANG","4 TECK WHYE AVE","4","TECK WHYE AVE","4 ROOM","01 TO 03","01","03",102,"Model A",1984,"63 years 06 months",63,303000,1.38193929484651,103.752806721707,19.254
"2020-01","CHOA CHU KANG","102 TECK WHYE LANE","102","TECK WHYE LANE","4 ROOM","04 TO 06","04","06",104,"Model A",1989,"68 years 03 months",68,315000,1.377082841385,103.754394432037,19.288
"2020-01","CHOA CHU KANG","112 TECK WHYE LANE","112","TECK WHYE LANE","4 ROOM","04 TO 06","04","06",106,"Model A",1989,"68 years 02 months",68,288000,1.37748545136822,103.751921303308,19.623
"2020-01","CHOA CHU KANG","103 TECK WHYE LANE","103","TECK WHYE LANE","4 ROOM","07 TO 09","07","09",104,"Model A",1989,"68 years 02 months",68,318000,1.37713078246274,103.753555993761,19.348
"2020-01","CLEMENTI","454 CLEMENTI AVE 3","454","CLEMENTI AVE 3","4 ROOM","07 TO 09","07","09",86,"Model A",2002,"81 years 11 months",81,628000,1.31226929073949,103.766430370318,13.185
"2020-01","CLEMENTI","441B CLEMENTI AVE 3","441B","CLEMENTI AVE 3","4 ROOM","22 TO 24","22","24",96,"Model A",2012,"91 years 06 months",91,860000,1.31489619639366,103.764423054189,13.216
"2020-01","CLEMENTI","311C CLEMENTI AVE 4","311C","CLEMENTI AVE 4","4 ROOM","31 TO 33","31","33",82,"DBSS",2014,"94 years",94,772000,1.32010579336827,103.765573470177,13.866
"2020-01","CLEMENTI","311B CLEMENTI AVE 4","311B","CLEMENTI AVE 4","4 ROOM","31 TO 33","31","33",81,"DBSS",2014,"93 years 11 months",93,726000,1.31944669077178,103.765649446368,13.834
"2020-01","CLEMENTI","311A CLEMENTI AVE 4","311A","CLEMENTI AVE 4","4 ROOM","25 TO 27","25","27",81,"DBSS",2014,"93 years 11 months",93,790000,1.31911656776897,103.765492195959,13.829
"2020-01","CLEMENTI","311B CLEMENTI AVE 4","311B","CLEMENTI AVE 4","4 ROOM","10 TO 12","10","12",81,"DBSS",2014,"93 years 11 months",93,722000,1.31944669077178,103.765649446368,13.834
"2020-01","CLEMENTI","311C CLEMENTI AVE 4","311C","CLEMENTI AVE 4","4 ROOM","10 TO 12","10","12",80,"DBSS",2014,"93 years 11 months",93,716666,1.32010579336827,103.765573470177,13.866
"2020-01","CLEMENTI","339 CLEMENTI AVE 5","339","CLEMENTI AVE 5","4 ROOM","01 TO 03","01","03",92,"New Generation",1979,"58 years 10 months",58,380000,1.31966316716168,103.769139839665,13.368
"2020-01","CLEMENTI","118 CLEMENTI ST 13","118","CLEMENTI ST 13","4 ROOM","13 TO 15","13","15",108,"Model A",1984,"63 years 09 months",63,560000,1.32491798651946,103.771891149087,13.614
"2020-01","CLEMENTI","610 CLEMENTI WEST ST 1","610","CLEMENTI WEST ST 1","4 ROOM","01 TO 03","01","03",104,"Model A",1983,"62 years 07 months",62,360000,1.30454704525517,103.768773617907,14.351
"2020-01","CLEMENTI","708 CLEMENTI WEST ST 2","708","CLEMENTI WEST ST 2","4 ROOM","04 TO 06","04","06",91,"New Generation",1980,"59 years 06 months",59,340000,1.30571872306759,103.762167768843,13.302
"2020-01","CLEMENTI","509 WEST COAST DR","509","WEST COAST DR","4 ROOM","04 TO 06","04","06",92,"New Generation",1978,"57 years",57,360000,1.31115775820738,103.761017537669,14.111
"2020-01","CLEMENTI","509 WEST COAST DR","509","WEST COAST DR","4 ROOM","07 TO 09","07","09",83,"New Generation",1978,"57 years",57,322888,1.31115775820738,103.761017537669,14.111
"2020-01","GEYLANG","31 BALAM RD","31","BALAM RD","4 ROOM","13 TO 15","13","15",92,"New Generation",1985,"64 years 03 months",64,460000,1.32968232972727,103.885407998763,8.624
"2020-01","GEYLANG","30 CASSIA CRES","30","CASSIA CRES","4 ROOM","01 TO 03","01","03",101,"Model A",1998,"77 years 05 months",77,520000,1.30944315518034,103.883336276334,5.503
"2020-01","GEYLANG","58 DAKOTA CRES","58","DAKOTA CRES","4 ROOM","01 TO 03","01","03",102,"Model A",1984,"63 years 10 months",63,671000,1.30730729862781,103.889390130934,6.114
"2020-01","GEYLANG","11 EUNOS CRES","11","EUNOS CRES","4 ROOM","07 TO 09","07","09",91,"New Generation",1977,"56 years 05 months",56,415000,1.32180029262903,103.904424351182,9.072
"2020-01","GEYLANG","9 EUNOS CRES","9","EUNOS CRES","4 ROOM","10 TO 12","10","12",91,"New Generation",1978,"57 years 06 months",57,435000,1.3218065735396,103.902776438263,8.422
"2020-01","GEYLANG","32 EUNOS CRES","32","EUNOS CRES","4 ROOM","10 TO 12","10","12",90,"Model A",2007,"86 years",86,745000,1.32029253511763,103.901355995305,8.635
"2020-01","GEYLANG","47 JLN TIGA","47","JLN TIGA","4 ROOM","10 TO 12","10","12",85,"Model A",2005,"84 years 04 months",84,650000,1.30876081841943,103.885032047857,5.76
"2020-01","GEYLANG","43A SIMS DR","43A","SIMS DR","4 ROOM","04 TO 06","04","06",108,"Model A",1989,"68 years 10 months",68,458000,1.31681884371364,103.876639624866,6.421
"2020-01","GEYLANG","339 UBI AVE 1","339","UBI AVE 1","4 ROOM","01 TO 03","01","03",89,"Simplified",1986,"65 years 01 month",65,390000,1.32646063251974,103.902007029513,9.661
"2020-01","GEYLANG","343 UBI AVE 1","343","UBI AVE 1","4 ROOM","01 TO 03","01","03",84,"Simplified",1986,"65 years 05 months",65,338000,1.32650665598538,103.900492068781,9.453
"2020-01","GEYLANG","323 UBI AVE 1","323","UBI AVE 1","4 ROOM","10 TO 12","10","12",84,"Simplified",1985,"64 years 05 months",64,380000,1.32803365560415,103.904398329853,9.685
"2020-01","HOUGANG","980B BUANGKOK CRES","980B","BUANGKOK CRES","4 ROOM","13 TO 15","13","15",90,"Model A",2003,"82 years 06 months",82,345000,1.37972529696275,103.881133269191,15.764
"2020-01","HOUGANG","981A BUANGKOK CRES","981A","BUANGKOK CRES","4 ROOM","07 TO 09","07","09",90,"Model A",2003,"82 years 04 months",82,343000,1.38048661721772,103.880709706168,15.778
"2020-01","HOUGANG","980B BUANGKOK CRES","980B","BUANGKOK CRES","4 ROOM","04 TO 06","04","06",90,"Model A",2003,"82 years 06 months",82,345000,1.37972529696275,103.881133269191,15.764
"2020-01","HOUGANG","988A BUANGKOK GREEN","988A","BUANGKOK GREEN","4 ROOM","07 TO 09","07","09",93,"Model A",2015,"94 years 01 month",94,440000,1.37946759731567,103.877266477065,16.04
"2020-01","HOUGANG","173 HOUGANG AVE 1","173","HOUGANG AVE 1","4 ROOM","10 TO 12","10","12",102,"Model A",1997,"76 years 11 months",76,385000,1.3501246547491,103.888838230371,11.635
"2020-01","HOUGANG","232 HOUGANG AVE 1","232","HOUGANG AVE 1","4 ROOM","04 TO 06","04","06",104,"Model A",1984,"63 years 10 months",63,450000,1.35854702755579,103.888523907469,12.072
"2020-01","HOUGANG","457 HOUGANG AVE 10","457","HOUGANG AVE 10","4 ROOM","04 TO 06","04","06",105,"Model A",1992,"71 years 10 months",71,385000,1.37697434058101,103.895998625016,15.834
"2020-01","HOUGANG","420 HOUGANG AVE 10","420","HOUGANG AVE 10","4 ROOM","01 TO 03","01","03",110,"Model A",1989,"68 years 08 months",68,4e+05,1.37580558530644,103.894819073452,16.525
"2020-01","HOUGANG","706 HOUGANG AVE 2","706","HOUGANG AVE 2","4 ROOM","01 TO 03","01","03",91,"New Generation",1985,"64 years 11 months",64,309000,1.36596036249795,103.888646477925,15.605
"2020-01","HOUGANG","702 HOUGANG AVE 2","702","HOUGANG AVE 2","4 ROOM","10 TO 12","10","12",93,"New Generation",1985,"64 years 09 months",64,348000,1.36575849509964,103.889720136349,15.59
"2020-01","HOUGANG","708 HOUGANG AVE 2","708","HOUGANG AVE 2","4 ROOM","04 TO 06","04","06",95,"New Generation",1985,"64 years 07 months",64,308000,1.36669418462152,103.88909314947,15.437
"2020-01","HOUGANG","363 HOUGANG AVE 5","363","HOUGANG AVE 5","4 ROOM","10 TO 12","10","12",104,"Model A",1992,"71 years 09 months",71,395000,1.36990038425157,103.896393480429,14.199
"2020-01","HOUGANG","637 HOUGANG AVE 8","637","HOUGANG AVE 8","4 ROOM","13 TO 15","13","15",84,"Simplified",1987,"66 years 08 months",66,352000,1.37096794957291,103.879282091229,15.333
"2020-01","HOUGANG","418 HOUGANG AVE 8","418","HOUGANG AVE 8","4 ROOM","01 TO 03","01","03",110,"Model A",1989,"68 years 03 months",68,365000,1.37598297260748,103.895426311766,16.508
"2020-01","HOUGANG","506 HOUGANG AVE 8","506","HOUGANG AVE 8","4 ROOM","10 TO 12","10","12",84,"Simplified",1987,"66 years 02 months",66,361000,1.37276572375702,103.887618824824,15.61
"2020-01","HOUGANG","918 HOUGANG AVE 9","918","HOUGANG AVE 9","4 ROOM","04 TO 06","04","06",100,"Model A",1998,"77 years 03 months",77,382000,1.37558451584825,103.883516297929,15.32
"2020-01","HOUGANG","838 HOUGANG CTRL","838","HOUGANG CTRL","4 ROOM","07 TO 09","07","09",98,"Model A",1997,"76 years 03 months",76,540000,1.36987745772013,103.891412815739,14.122
